{"version": 0.6, "generator": "Overpass API 0.7.62.8 e802775f", "osm3s": {"timestamp_osm_base": "2026-01-05T02:56:43Z", "copyright": "The data included in this document is from www.openstreetmap.org. The data is made available under ODbL."}, "elements": [{"type": "node", "id": 287758984, "lat": 37.5905509, "lon": 127.0197876, "tags": {"highway": "crossing"}}, {"type": "node", "id": 292077276, "lat": 37.5923569, "lon": 127.035225, "tags": {"highway": "crossing"}}, {"type": "node", "id": 292077489, "lat": 37.5942708, "lon": 127.0254251, "tags": {"crossing": "uncontrolled", "crossing:markings": "yes", "highway": "crossing"}}, {"type": "node", "id": 292077560, "lat": 37.5880467, "lon": 127.0259246, "tags": {"crossing": "uncontrolled", "crossing:markings": "yes", "highway": "crossing"}}, {"type": "node", "id": 292077574, "lat": 37.5867255, "lon": 127.025338, "tags": {"highway": "crossing"}}, {"type": "node", "id": 292077636, "lat": 37.5879541, "lon": 127.0283608, "tags": {"crossing": "uncontrolled", "crossing:markings": "yes", "highway": "crossing"}}, {"type": "node", "id": 357821089, "lat": 37.57854, "lon": 127.02322, "tags": {"bus": "yes", "highway": "bus_stop", "name": "\ub300\uad11\ucd08\uad50", "name:en": "Daegwang Elementary School", "name:ko": "\ub300\uad11\ucd08\uad50", "name:ko-Latn": "Daegwangchogyo", "public_transport": "platform", "route_ref": "100;163;144"}}, {"type": "node", "id": 357821090, "lat": 37.58303, "lon": 127.02925, "tags": {"bus": "yes", "highway": "bus_stop", "name": "\uc548\uc554\ub3d9\ub85c\ud130\ub9ac", "name:en": "Anamdong Rotary", "name:ko": "\uc548\uc554\ub3d9\ub85c\ud130\ub9ac", "name:ko-Latn": "Anamdongnoteori", "public_transport": "platform", "route_ref": "100;144;163"}}, {"type": "node", "id": 357821145, "lat": 37.6126342, "lon": 127.0301915, "tags": {"bus": "yes", "highway": "bus_stop", "name": "\ubbf8\uc544\uc0ac\uac70\uc5ed", "name:en": "Miasageori Station", "name:ko": "\ubbf8\uc544\uc0ac\uac70\ub9ac\uc5ed", "name:ko-Latn": "Miasageoriyeok", "public_transport": "platform", "route_ref": "100;101;102;106;107;108;120;130;141;142;144;150;151;153;160;161;1018;1128;1148;2001;140"}}, {"type": "node", "id": 357821220, "lat": 37.63857, "lon": 127.01375, "tags": {"bus": "yes", "highway": "bus_stop", "name": "\uc6b0\uc774\ucd08\ub4f1\ud559\uad50\ud6c4\ubb38", "name:en": "Ui Elementary School Back Gate", "name:ko": "\uc6b0\uc774\ucd08\ub4f1\ud559\uad50\ud6c4\ubb38", "name:ko-Latn": "Uichodeunghakgyohumun", "public_transport": "platform", "route_ref": "101;151"}}, {"type": "node", "id": 357821222, "lat": 37.636359, "lon": 127.0130375, "tags": {"bus": "yes", "highway": "bus_stop", "name": "\uc218\uc720\ub3d9\uccad\uc218\ud0d5\uc785\uad6c", "name:en": "Suyudongcheongsutang Entrance", "name:ko": "\uc218\uc720\ub3d9\uccad\uc218\ud0d5\uc785\uad6c", "name:ko-Latn": "Suyudongcheongsutangipgu", "public_transport": "platform", "route_ref": "101;151"}}, {"type": "node", "id": 357821224, "lat": 37.6424323, "lon": 127.0109856, "tags": {"bus": "yes", "highway": "bus_stop", "name": "\uc778\uc218\uc911\ud559\uad50.\uadf9\ub3d9\uc544\ud30c\ud2b8", "name:en": "Insu Middle School", "name:ko": "\uc778\uc218\uc911\ud559\uad50", "name:ko-Latn": "Insujunghakgyo", "public_transport": "platform", "route_ref": "101;151"}}, {"type": "node", "id": 357821248, "lat": 37.6480365, "lon": 127.0135653, "tags": {"bus": "yes", "highway": "bus_stop", "name": "\uad6d\ub9bd419\ubb18\uc9c0\uc785\uad6c\uc0ac\uac70\ub9ac", "name:en": "National 419 Cemetery Entrance Crossroad", "name:ko": "\uad6d\ub9bd419\ubb18\uc9c0\uc785\uad6c\uc0ac\uac70\ub9ac", "name:ko-Latn": "Gungnip 419 Myojiipgusageori", "public_transport": "platform", "route_ref": "101;1119;104"}}, {"type": "node", "id": 357821250, "lat": 37.64672, "lon": 127.01705, "tags": {"bus": "yes", "highway": "bus_stop", "name": "\ubd81\ubd80\uc131\ubaa8\ubcd1\uc6d0", "name:en": "Bukbuseongmo Hospital", "name:ko": "\ubd81\ubd80\uc131\ubaa8\ubcd1\uc6d0", "name:ko-Latn": "Bukbuseongmobyeongwon", "public_transport": "platform", "route_ref": "101;153;1119;120"}}, {"type": "node", "id": 357821252, "lat": 37.6443036, "lon": 127.0108766, "tags": {"bus": "yes", "highway": "bus_stop", "name": "\uc778\uc218\ub3d9\ubc31\uc6b4\uad50\ud68c\uc785\uad6c", "name:en": "Baekwoon church entrance", "public_transport": "platform", "route_ref": "101;151"}}, {"type": "node", "id": 357821255, "lat": 37.6461271, "lon": 127.01068, "tags": {"bus": "yes", "highway": "bus_stop", "name": "\uad6d\ub9bd419\ubb18\uc9c0\uc785\uad6c\uc0bc\uac70\ub9ac.\uc724\uadf9\uc601\uac00\uc625", "name:en": "National 419 Cemetery Entrance Samgeori", "name:ko-Latn": "Gungnip 419 Myojiipgusamgeori", "public_transport": "platform", "route_ref": "101;151"}}, {"type": "node", "id": 357821261, "lat": 37.6069361, "lon": 127.0282316, "tags": {"bench": "yes", "bus": "yes", "highway": "bus_stop", "name": "\uae38\uc74c2\ub3d9\uc8fc\ubbfc\uc13c", "public_transport": "platform", "ref": "08001", "route_ref": "101;153;161;172;1018;1148;150;142;140;108;149;151;107;106;103;160;102", "shelter": "yes"}}, {"type": "node", "id": 357821316, "lat": 37.6480656, "lon": 127.0133554, "tags": {"bus": "yes", "highway": "bus_stop", "name": "\uad6d\ub9bd4.19\ubbfc\uc8fc\ubb18\uc9c0\uc785\uad6c\uc0ac\uac70\ub9ac", "public_transport": "platform", "route_ref": "101;104;151;1119"}}, {"type": "node", "id": 357821345, "lat": 37.64534, "lon": 127.06272, "tags": {"bus": "yes", "highway": "bus_stop", "name": "\uc5b4\ub9b0\uc774\uad50\ud1b5\uacf5\uc6d0", "name:en": "Children Gyotong Park", "name:ko": "\uc5b4\ub9b0\uc774\uad50\ud1b5\uacf5\uc6d0", "name:ko-Latn": "Eorinigyotonggongwon", "public_transport": "platform", "route_ref": "102;1120"}}, {"type": "node", "id": 357821347, "lat": 37.64525, "lon": 127.05948, "tags": {"bus": "yes", "highway": "bus_stop", "name": "\ub9c8\ub4e4\uadfc\ub9b0\uacf5\uc6d0", "name:en": "Madeul Neighborhood Park", "name:ko": "\ub9c8\ub4e4\uadfc\ub9b0\uacf5\uc6d0", "name:ko-Latn": "Madeulgeullingongwon", "public_transport": "platform", "route_ref": "102;1120;1144"}}, {"type": "node", "id": 357821357, "lat": 37.6425271, "lon": 127.0108912, "tags": {"bus": "yes", "highway": "bus_stop", "name": "\uc778\uc218\uc911\ud559\uad50.\uadf9\ub3d9\uc544\ud30c\ud2b8", "name:en": "Insu Middle School", "name:ko": "\uc778\uc218\uc911\ud559\uad50", "name:ko-Latn": "Insujunghakgyo", "public_transport": "platform", "route_ref": "101;151"}}, {"type": "node", "id": 357821374, "lat": 37.637273, "lon": 127.0129544, "tags": {"bus": "yes", "highway": "bus_stop", "name": "\uc218\uc720\ub3d9\uccad\uc218\ud0d5\uc785\uad6c", "name:en": "Suyudongcheongsutang Entrance", "name:ko": "\uc218\uc720\ub3d9\uccad\uc218\ud0d5\uc785\uad6c", "name:ko-Latn": "Suyudongcheongsutangipgu", "public_transport": "platform", "route_ref": "101;151"}}, {"type": "node", "id": 357821424, "lat": 37.63534, "lon": 127.03181, "tags": {"bus": "yes", "highway": "bus_stop", "name": "\ubd81\ubd80\uc2dc\uc7a5\uc785\uad6c", "name:en": "Bukbu Market Entrance", "name:ko": "\ubd81\ubd80\uc2dc\uc7a5\uc785\uad6c", "name:ko-Latn": "Bukbusijangipgu", "public_transport": "platform", "route_ref": "102;1124"}}, {"type": "node", "id": 357821426, "lat": 37.63615, "lon": 127.03527, "tags": {"bus": "yes", "highway": "bus_stop", "name": "\ubc88\ub3d9\uc0ac\uac70\ub9ac", "name:en": "Beondong Crossroad", "name:ko": "\ubc88\ub3d9\uc0ac\uac70\ub9ac", "name:ko-Latn": "Beondongsageori", "public_transport": "platform", "route_ref": "102"}}, {"type": "node", "id": 357821439, "lat": 37.6348805, "lon": 127.0251233, "tags": {"bus": "yes", "highway": "bus_stop", "name": "\ubcf4\ub78c\ube4c\ub529/\uc218\uc720\uc0ac\uac70\ub9ac", "name:ko": "\ubcf4\ub78c\ube4c\ub529/\uc218\uc720\uc0ac\uac70\ub9ac", "public_transport": "platform", "route_ref": "102"}}, {"type": "node", "id": 357821483, "lat": 37.64603, "lon": 127.06387, "tags": {"bus": "yes", "highway": "bus_stop", "name": "\uc911\uacc4\uc5ed1\ubc88\ucd9c\uad6c", "name:en": "Junggye station gate 1", "name:ko": "\uc911\uacc4\uc5ed1\ubc88\ucd9c\uad6c", "name:ko-Latn": "Junggyeyeok 1 Beonchulgu", "public_transport": "platform", "route_ref": "102"}}, {"type": "node", "id": 357821494, "lat": 37.63493, "lon": 127.02926, "tags": {"bus": "yes", "highway": "bus_stop", "name": "\ubd81\ubd80\uacbd\ucc30\uc11c\uc785\uad6c", "name:en": "Bukbu Police Station Entrance", "name:ko": "\ubd81\ubd80\uacbd\ucc30\uc11c\uc785\uad6c", "name:ko-Latn": "Bukbugyeongchalseoipgu", "public_transport": "platform", "route_ref": "102"}}, {"type": "node", "id": 357821496, "lat": 37.6346328, "lon": 127.0241899, "tags": {"bus": "yes", "highway": "bus_stop", "name": "\uc218\uc720\uc0ac\uac70\ub9ac", "name:en": "Suyu Crossroad", "name:ko": "\uc218\uc720\uc0ac\uac70\ub9ac", "name:ko-Latn": "Suyusageori", "public_transport": "platform", "route_ref": "102"}}, {"type": "node", "id": 357821498, "lat": 37.63593, "lon": 127.03535, "tags": {"bus": "yes", "highway": "bus_stop", "name": "\ubc88\ub3d9\uc0ac\uac70\ub9ac", "name:en": "Beondong Crossroad", "name:ko": "\ubc88\ub3d9\uc0ac\uac70\ub9ac", "name:ko-Latn": "Beondongsageori", "public_transport": "platform", "route_ref": "102;1157"}}, {"type": "node", "id": 357821500, "lat": 37.635082, "lon": 127.03243, "tags": {"bus": "yes", "highway": "bus_stop", "name": "\ubd81\ubd80\uc2dc\uc7a5\uc785\uad6c", "name:en": "Bukbu Market Entrance", "name:ko": "\ubd81\ubd80\uc2dc\uc7a5\uc785\uad6c", "name:ko-Latn": "Bukbusijangipgu", "public_transport": "platform", "route_ref": "102"}}, {"type": "node", "id": 357821521, "lat": 37.6118641, "lon": 127.0355171, "tags": {"bus": "yes", "highway": "bus_stop", "name": "\ucc3d\ubb38\uc5ec\uace0\uc55e", "name:en": "Changmunyeogo Front", "name:ko": "\ucc3d\ubb38\uc5ec\uace0\uc55e", "name:ko-Latn": "Changmunyeogoap", "public_transport": "platform", "route_ref": "103;1137;149;172", "shelter": "yes"}}, {"type": "node", "id": 357821531, "lat": 37.61608, "lon": 127.04852, "tags": {"bus": "yes", "highway": "bus_stop", "name": "\uc7a5\uace1\ucd08\uad50", "name:en": "Janggok Elementary School", "name:ko": "\uc7a5\uace1\ucd08\uad50", "name:ko-Latn": "Janggokchogyo", "public_transport": "platform", "route_ref": "103;172;1137;1017"}}, {"type": "node", "id": 357821553, "lat": 37.64799, "lon": 127.06284, "tags": {"bus": "yes", "highway": "bus_stop", "name": "\ubc31\ubcd1\uc6d0", "name:en": "Baek Hospital", "name:ko": "\ubc31\ubcd1\uc6d0", "name:ko-Latn": "Baekbyeongwon", "public_transport": "platform", "route_ref": "102;105;146;1137;1139"}}, {"type": "node", "id": 357821559, "lat": 37.65315, "lon": 127.06109, "tags": {"bus": "yes", "highway": "bus_stop", "name": "\uc0c1\uacc4\uc8fc\uacf56\ub2e8\uc9c0", "name:en": "Sanggyejugong 6 Complex", "name:ko": "\uc0c1\uacc4\uc8fc\uacf56\ub2e8\uc9c0", "name:ko-Latn": "Sanggyejugong 6 Danji", "public_transport": "platform", "route_ref": "102;1137;1144;146;1139;105"}}, {"type": "node", "id": 357821580, "lat": 37.58046, "lon": 127.02179, "tags": {"bus": "yes", "highway": "bus_stop", "name": "\ubcf4\ubb38\ub3d9\uc0ac\ubb34\uc18c", "name:en": "Bomun Office", "name:ko": "\ubcf4\ubb38\ub3d9\uc0ac\ubb34\uc18c", "name:ko-Latn": "Bomundongsamuso", "public_transport": "platform", "route_ref": "103;1014;272;152"}}, {"type": "node", "id": 357821588, "lat": 37.5906076, "lon": 127.0144119, "tags": {"bus": "yes", "highway": "bus_stop", "name": "\uc0bc\uc120\ub3d9\uc8fc\ubbfc\uc13c\ud130", "name:en": "Samseon 2 Office", "name:ko-Latn": "Samseon 2 Dongsamuso", "public_transport": "platform", "route_ref": "103;273;272;142;1111;152"}}, {"type": "node", "id": 357821651, "lat": 37.641879, "lon": 127.0166146, "tags": {"bus": "yes", "highway": "bus_stop", "name": "\uac00\uc624\ub9ac\uc5ed", "public_transport": "platform", "route_ref": "104;1218;1166;1144;144;109"}}, {"type": "node", "id": 357821661, "lat": 37.62983, "lon": 127.01772, "tags": {"bus": "yes", "highway": "bus_stop", "name": "\ube68\ub798\uace8\uc785\uad6c.\uc218\uc7201\ub3d9\uc8fc\ubbfc\uc13c\ud130", "public_transport": "platform", "route_ref": "104;109;410;1166;1128;144"}}, {"type": "node", "id": 357821669, "lat": 37.5800207, "lon": 127.0223291, "tags": {"bench": "yes", "bin": "no", "bus": "yes", "highway": "bus_stop", "lit": "yes", "name": "\ubcf4\ubb38\ub3d9\uc0ac\ubb34\uc18c", "name:en": "Bomun Office", "name:ko": "\ubcf4\ubb38\ub3d9\uc0ac\ubb34\uc18c", "name:ko-Latn": "Bomundongsamuso", "public_transport": "platform", "ref": "08184", "route_ref": "103;152;272", "shelter": "yes", "tactile_paving": "yes"}}, {"type": "node", "id": 357821686, "lat": 37.6098297, "lon": 127.0320312, "tags": {"bench": "yes", "bus": "yes", "highway": "bus_stop", "name": "\uc22d\uace1\ucd08\uad50\uc785\uad6c", "name:en": "Sunggok Elementary School Entrance", "name:ko": "\uc22d\uace1\ucd08\uad50\uc785\uad6c", "name:ko-Latn": "Sunggokchogyoipgu", "public_transport": "platform", "ref": "08101", "route_ref": "103;172;1113;149", "shelter": "yes"}}, {"type": "node", "id": 357821710, "lat": 37.613951, "lon": 127.0434376, "tags": {"bus": "yes", "highway": "bus_stop", "name": "\uc7a5\uc7041\ub3d9\uc8fc\ubbfc\uc13c\ud130", "name:en": "Jangwi 1 Office", "name:ko-Latn": "Jangwi 1 Dongsamuso", "public_transport": "platform", "route_ref": "103;172;1017;1137"}}, {"type": "node", "id": 357821765, "lat": 37.6072426, "lon": 127.0234527, "tags": {"bus": "yes", "highway": "bus_stop", "name": "\uae38\uc74c\ub3d9\ub3d9\ubd80\uc544\ud30c\ud2b8", "name:en": "Gileumdongdongbu Apt.", "name:ko": "\uae38\uc74c\ub3d9\ub3d9\ubd80\uc544\ud30c\ud2b8", "name:ko-Latn": "Gileumdongdongbuapateu", "public_transport": "platform", "route_ref": "104;109;152;410;1116"}}, {"type": "node", "id": 357821790, "lat": 37.6471407, "lon": 127.0629341, "tags": {"bus": "yes", "highway": "bus_stop", "name": "\uc0c1\uacc4\uc8fc\uacf51\ub2e8\uc9c0.\ud55c\uad6d\uc131\uc11c\ub300\ud559\uad50", "name:en": "Sanggyejugong 1 Complex", "name:ko-Latn": "Sanggyejugong 1 Danji", "public_transport": "platform", "route_ref": "105;146;1137;102;1139"}}, {"type": "node", "id": 357821792, "lat": 37.6496503, "lon": 127.0616866, "tags": {"bus": "yes", "highway": "bus_stop", "name": "\uc0c1\uacc4\uc8fc\uacf52\ub2e8\uc9c0", "name:en": "Sanggyejugong 2 Complex", "name:ko": "\uc0c1\uacc4\uc8fc\uacf52\ub2e8\uc9c0", "name:ko-Latn": "Sanggyejugong 2 Danji", "public_transport": "platform", "route_ref": "105;102;1137;1139;1144;146"}}, {"type": "node", "id": 357821804, "lat": 37.646944, "lon": 127.0090514, "tags": {"bus": "yes", "highway": "bus_stop", "name": "\uad6d\ub9bd4.19\ubbfc\uc8fc\ubb18\uc9c0", "name:en": "National 419 Cemetery", "name:ko-Latn": "Gungnip 419 Myoji", "public_transport": "platform", "route_ref": "104;1119"}}, {"type": "node", "id": 357821806, "lat": 37.6194006, "lon": 127.0749469, "tags": {"bus": "yes", "highway": "bus_stop", "name": "\ud0dc\ub989\uc785\uad6c\uc5ed3\ubc88\ucd9c\uad6c", "name:en": "Taereung Entrance Yeok 3 Beon Exit", "name:ko": "\ud0dc\ub989\uc785\uad6c\uc5ed3\ubc88\ucd9c\uad6c", "name:ko-Latn": "Taereungipguyeok 3 Beonchulgu", "public_transport": "platform", "route_ref": "105;146"}}, {"type": "node", "id": 357821815, "lat": 37.6367818, "lon": 127.0675668, "tags": {"bus": "yes", "highway": "bus_stop", "name": "\ud558\uacc4\uc5ed", "name:en": "Hagye Station", "name:ja": "\u4e0b\u6e13\u99c5", "name:ko": "\ud558\uacc4\uc5ed", "name:ko-Latn": "Hagyeyeok", "public_transport": "platform", "route_ref": "105;146;1137;1131;1140"}}, {"type": "node", "id": 357821844, "lat": 37.6416886, "lon": 127.0167987, "tags": {"bus": "yes", "highway": "bus_stop", "name": "\uac00\uc624\ub9ac\uc5ed", "name:en": "Gaori Yeok", "name:ja": "\u30ab\u30aa\u30ea", "name:ko": "\uac00\uc624\ub9ac\uc5ed", "name:ko-Latn": "Gaori Yeok", "public_transport": "platform", "ref": "09123", "route_ref": "104;1144;109;1166;1218;144"}}, {"type": "node", "id": 357821922, "lat": 37.637316, "lon": 127.06768, "tags": {"bus": "yes", "highway": "bus_stop", "name": "\ud558\uacc4\uc5ed", "name:en": "Hagye Station", "name:ja": "\u4e0b\u6e13\u99c5", "name:ko": "\ud558\uacc4\uc5ed", "name:ko-Latn": "Hagyeyeok", "public_transport": "platform", "route_ref": "105;146;1137;1131;1140;1160;1135"}}, {"type": "node", "id": 357821930, "lat": 37.65075, "lon": 127.06171, "tags": {"bus": "yes", "highway": "bus_stop", "name": "\uc0c1\uacc4\uc8fc\uacf54\ub2e8\uc9c0", "name:en": "Sanggyejugong 4 Complex", "name:ko": "\uc0c1\uacc4\uc8fc\uacf54\ub2e8\uc9c0", "name:ko-Latn": "Sanggyejugong 4 Danji", "public_transport": "platform", "route_ref": "105;1139;1137;146;102"}}, {"type": "node", "id": 357821936, "lat": 37.61956, "lon": 127.07515, "tags": {"bus": "yes", "highway": "bus_stop", "name": "\ud0dc\ub989\uc785\uad6c\uc5ed4\ubc88\ucd9c\uad6c", "name:en": "Taereung Entrance Yeok 4 Beon Exit", "name:ko": "\ud0dc\ub989\uc785\uad6c\uc5ed4\ubc88\ucd9c\uad6c", "name:ko-Latn": "Taereungipguyeok 4 Beonchulgu", "public_transport": "platform", "route_ref": "105;146"}}, {"type": "node", "id": 357821942, "lat": 37.6285505, "lon": 127.0716601, "tags": {"bus": "yes", "highway": "bus_stop", "name": "\uc11c\uc6b8\uacfc\ud559\uae30\uc220\ub300\uc785\uad6c", "name:en": "Saneopdae Entrance", "name:ko": "\uc11c\uc6b8\uacfc\ud559\uae30\uc220\ub300\uc785\uad6c", "name:ko-Latn": "Saneopdaeipgu", "public_transport": "platform", "route_ref": "105;146"}}, {"type": "node", "id": 357822011, "lat": 37.6249327, "lon": 127.0266818, "tags": {"bus": "yes", "highway": "bus_stop", "name": "\ubbf8\uc544\uc5ed.\uc2e0\uc77c\uc911\uace0", "name:en": "Miayeoksiniljunggo", "name:ko": "\ubbf8\uc544\uc5ed.\uc2e0\uc77c\uc911\uace0", "name:ko-Latn": "Miayeoksiniljunggo", "public_transport": "platform", "route_ref": "106;107;130;1018;161;120;140;153;141;100;160;151;2001;108;1144;142;1148;150;101;102"}}, {"type": "node", "id": 357822801, "lat": 37.6196855, "lon": 127.0288065, "tags": {"bus": "yes", "highway": "bus_stop", "name": "\ub3c4\ubd09\uc138\ubb34\uc11c.\uc131\ubd81\uc2dc\uc7a5", "name:en": "Dobong District Tax Office Seongbuk Market", "name:ko": "\ub3c4\ubd09\uc138\ubb34\uc11c.\uc131\ubd81\uc2dc\uc7a5", "name:ko-Latn": "Dobongsemuseoseongbuksijang", "public_transport": "platform", "route_ref": "108;102;101;100;141;120;142;107;161;1018;160;153;140;150;1148;151;1144;106;130"}}, {"type": "node", "id": 357822823, "lat": 37.5932966, "lon": 127.01768, "tags": {"bench": "yes", "bin": "yes", "bus": "yes", "highway": "bus_stop", "name": "\ub3c8\uc554\uc0ac\uac70\ub9ac.\uc131\uc2e0\uc5ec\ub300\uc785\uad6c(\uc911)", "name:en": "Donam Crossroad Sungshin Women's University Entrance", "name:ko-Latn": "Donamsageoriseongsinyeodaeipgu", "name:zh": "\u6566\u5ca9\u5341\u5b57\u8def\u8aa0\u4fe1\u5973\u5927\u5165\u53e3", "public_transport": "platform", "route_ref": "108;109;140;142;143;149;150;151;160;152;161;172;171;1018;1148;101;102;103;104;106;107", "shelter": "yes", "tactile_paving": "yes", "wheelchair": "yes"}}, {"type": "node", "id": 357822825, "lat": 37.5980313, "lon": 127.0216955, "tags": {"bench": "yes", "bin": "yes", "bus": "yes", "highway": "bus_stop", "name": "\ubbf8\uc544\ub9ac\uace0\uac1c.\ubbf8\uc544\ub9ac\uc608\uc220\uadf9\uc7a5(\uc911)", "public_transport": "platform", "route_ref": "108;150;107;160;104;161;142;143;101;151;140;171;149;172;109;152;102;103;1148;106;1018", "shelter": "yes", "tactile_paving": "yes"}}, {"type": "node", "id": 357823287, "lat": 37.6215037, "lon": 127.0204928, "tags": {"bus": "yes", "highway": "bus_stop", "name": "\uc0bc\uc591\uc0ac\uac70\ub9ac\uc5ed", "public_transport": "platform", "route_ref": "109;104;1128;410;1166;144"}}, {"type": "node", "id": 357823313, "lat": 37.61086, "lon": 127.02242, "tags": {"bus": "yes", "highway": "bus_stop", "name": "\ubbf8\uc544\ucd08\uad50", "name:en": "Mia Elementary School", "name:ko": "\ubbf8\uc544\ucd08\uad50", "name:ko-Latn": "Miachogyo", "public_transport": "platform", "route_ref": "109;410;152;104;1116"}}, {"type": "node", "id": 357823322, "lat": 37.6077796, "lon": 127.0234771, "tags": {"bus": "yes", "highway": "bus_stop", "name": "\uae38\uc74c\ub3d9\ub3d9\ubd80\uc544\ud30c\ud2b8", "name:en": "Gileumdongdongbu Apt.", "name:ko": "\uae38\uc74c\ub3d9\ub3d9\ubd80\uc544\ud30c\ud2b8", "name:ko-Latn": "Gileumdongdongbuapateu", "public_transport": "platform", "route_ref": "109;104;152;410;1116"}}, {"type": "node", "id": 357823412, "lat": 37.6185359, "lon": 127.0212723, "tags": {"bus": "yes", "highway": "bus_stop", "name": "\uc0bc\uc591\ub3d9\uc0ac\uac70\ub9ac.\ub798\ubbf8\uc548\ud2b8\ub9ac\ubca0\ub77c", "public_transport": "platform", "route_ref": "109;104;410;152"}}, {"type": "node", "id": 357823452, "lat": 37.61151, "lon": 127.022, "tags": {"bus": "yes", "highway": "bus_stop", "name": "\ubbf8\uc544\ucd08\uad50", "name:en": "Mia Elementary School", "name:ko": "\ubbf8\uc544\ucd08\uad50", "name:ko-Latn": "Miachogyo", "public_transport": "platform", "route_ref": "109;152;410;1116;104"}}, {"type": "node", "id": 357823676, "lat": 37.662856, "lon": 127.0111558, "tags": {"bus": "yes", "highway": "bus_stop", "name": "\uc601\uc2e0\uc5ec\uac1d\ucc28\uace0\uc9c0(\uc6b0\uc774\ub3d9\uc885\uc810)", "name:en": "Uidong Last stop", "name:ko-Latn": "Uidongjongjeom", "public_transport": "platform"}}, {"type": "node", "id": 357823719, "lat": 37.60183, "lon": 127.02449, "tags": {"bus": "yes", "highway": "bus_stop", "name": "\uae38\uc74c\uc5ed2\ubc88\ucd9c\uad6c.\ub3c8\uc554\uc0bc\uc131\uc544\ud30c\ud2b8", "public_transport": "platform", "route_ref": "110;152;109;1213;104;1116;7211"}}, {"type": "node", "id": 357823741, "lat": 37.60834, "lon": 127.01002, "tags": {"bus": "yes", "highway": "bus_stop", "name": "\uc815\ub989\uc2dc\uc7a5\uc785\uad6c", "name:en": "Jeongneung Market Entrance", "name:ko": "\uc815\ub989\uc2dc\uc7a5\uc785\uad6c", "name:ko-Latn": "Jeongneungsijangipgu", "public_transport": "platform", "route_ref": "110;110;143;1113;162;1014"}}, {"type": "node", "id": 357823837, "lat": 37.6073494, "lon": 127.003138, "tags": {"bus": "yes", "highway": "bus_stop", "name": "\ubd81\uc545\uc911\ud559\uad50", "public_transport": "platform", "route_ref": "110;7211;1112;153"}}, {"type": "node", "id": 357824036, "lat": 37.601274, "lon": 127.0332629, "tags": {"bus": "yes", "highway": "bus_stop", "name": "\uc885\uc554\uacbd\ucc30\uc11c", "name:en": "Jongam Police Station", "name:ko-Latn": "Jongamgyeongchalseo", "public_transport": "platform", "route_ref": "130;1111;110;100;1125;141;144;148;1017;163;7211;410;1213"}}, {"type": "node", "id": 357824155, "lat": 37.6491422, "lon": 127.0137726, "tags": {"bus": "yes", "highway": "bus_stop", "name": "4.19\ubbfc\uc8fc\ubb18\uc9c0\uc5ed", "public_transport": "platform", "route_ref": "120;151;153;144;1144;1166;1218;109"}}, {"type": "node", "id": 357824164, "lat": 37.6404523, "lon": 127.0260676, "tags": {"bus": "yes", "highway": "bus_stop", "name": "\uac15\ubd81\uad6c\uccad", "name:en": "Gangbuk Office", "name:ko": "\uac15\ubd81\uad6c\uccad", "name:ko-Latn": "Gangbukgucheong", "public_transport": "platform", "route_ref": "120;153;1119;101;1128"}}, {"type": "node", "id": 357824171, "lat": 37.60562, "lon": 127.0618595, "tags": {"bus": "yes", "highway": "bus_stop", "name": "\ud55c\uad6d\uc608\uc220\uc885\ud569\ud559\uad50", "name:en": "Korea Art Jonghaphakgyo", "name:ko": "\ud55c\uad6d\uc608\uc220\uc885\ud569\ud559\uad50", "name:ko-Latn": "Hangukyesuljonghaphakgyo", "public_transport": "platform", "route_ref": "120;147;261;1222"}}, {"type": "node", "id": 357824196, "lat": 37.60755, "lon": 127.06018, "tags": {"bus": "yes", "highway": "bus_stop", "name": "\uc11d\uad00\ub3d9\uc0c8\ub9c8\uc744\uae08\uace0", "name:en": "Seokgwandong Community Credit Cooperative", "name:ko": "\uc11d\uad00\ub3d9\uc0c8\ub9c8\uc744\uae08\uace0", "name:ko-Latn": "Seokgwandongsaemaeulgeumgo", "public_transport": "platform", "route_ref": "120;1222;261;147"}}, {"type": "node", "id": 357824202, "lat": 37.6056636, "lon": 127.0620177, "tags": {"bus": "yes", "highway": "bus_stop", "name": "\ud55c\uad6d\uc608\uc220\uc885\ud569\ud559\uad50", "name:en": "Korea Art Jonghaphakgyo", "name:ko": "\ud55c\uad6d\uc608\uc220\uc885\ud569\ud559\uad50", "name:ko-Latn": "Hangukyesuljonghaphakgyo", "public_transport": "platform", "route_ref": "120;147;261;1222;1215"}}, {"type": "node", "id": 357824212, "lat": 37.6073, "lon": 127.06073, "tags": {"bus": "yes", "highway": "bus_stop", "name": "\uc11d\uad00\ub3d9\uc0c8\ub9c8\uc744\uae08\uace0", "name:en": "Seokgwandong Community Credit Cooperative", "name:ko": "\uc11d\uad00\ub3d9\uc0c8\ub9c8\uc744\uae08\uace0", "name:ko-Latn": "Seokgwandongsaemaeulgeumgo", "public_transport": "platform", "route_ref": "120;147;261;1222;1215"}}, {"type": "node", "id": 357824237, "lat": 37.6098651, "lon": 127.0318188, "tags": {"bus": "yes", "highway": "bus_stop", "name": "\uc22d\uace1\ucd08\ub4f1\ud559\uad50\uc785\uad6c", "name:en": "Sunggok Elementary School Entrance", "name:ko": "\uc22d\uace1\ucd08\ub4f1\ud559\uad50\uc785\uad6c", "name:ko-Latn": "Sunggokchodeunghakgyoipgu", "public_transport": "platform", "ref": "09190", "route_ref": "120;1124;103;149;1137;172;1113"}}, {"type": "node", "id": 357824242, "lat": 37.640449, "lon": 127.0262082, "tags": {"bus": "yes", "highway": "bus_stop", "name": "\uac15\ubd81\uad6c\uccad", "name:en": "Gangbuk Office", "name:ko": "\uac15\ubd81\uad6c\uccad", "name:ko-Latn": "Gangbukgucheong", "public_transport": "platform", "route_ref": "120;153;101;1128"}}, {"type": "node", "id": 357824252, "lat": 37.60592, "lon": 127.04728, "tags": {"bus": "yes", "highway": "bus_stop", "name": "\uc0c1\uc6d4\uace1\uc5ed", "name:en": "Sangwolgok Station", "name:ko": "\uc0c1\uc6d4\uace1\uc5ed", "name:ko-Latn": "Sangwolgokyeok", "public_transport": "platform", "route_ref": "120;1113;148;163"}}, {"type": "node", "id": 357824620, "lat": 37.5987844, "lon": 127.0217654, "tags": {"bench": "yes", "bin": "yes", "bus": "yes", "highway": "bus_stop", "name": "\ubbf8\uc544\ub9ac\uace0\uac1c.\ubbf8\uc544\ub9ac\uc608\uc220\uadf9\uc7a5(\uc911)", "name:en": "Miari Hill", "name:ja": "\u30df\u30a2\u30ea\u5ce0", "name:ko-Latn": "Miarigogae", "public_transport": "platform", "route_ref": "140;150;149;152;151;1148;160;107;102;108;103;143;142;104;172;161;101;109;1018;106;171", "shelter": "yes", "tactile_paving": "yes"}}, {"type": "node", "id": 357825165, "lat": 37.6048913, "lon": 127.0115078, "tags": {"bench": "yes", "bin": "no", "bus": "yes", "highway": "bus_stop", "lit": "no", "name": "\uc815\ub989\uc6b0\uccb4\uad6d\uc55e", "name:en": "Jeongneung Post Office Front", "name:ko": "\uc815\ub989\uc6b0\uccb4\uad6d\uc55e", "name:ko-Latn": "Jeongneunguchegukap", "public_transport": "platform", "ref": "08169", "route_ref": "143;1014;1113;110;162;110", "shelter": "yes", "tactile_paving": "yes"}}, {"type": "node", "id": 357825173, "lat": 37.6167697, "lon": 127.0031944, "tags": {"bus": "yes", "highway": "bus_stop", "name": "\uc815\ub989\uc0b0\uc7a5\uc544\ud30c\ud2b8", "name:en": "Jeongneung Mountain Villa Apt.", "name:ko": "\uc815\ub989\uc0b0\uc7a5\uc544\ud30c\ud2b8", "name:ko-Latn": "Jeongneungsanjangapateu", "public_transport": "platform", "route_ref": "143;162;1020;1113;110;110"}}, {"type": "node", "id": 357825582, "lat": 37.6552573, "lon": 127.0130351, "tags": {"bus": "yes", "highway": "bus_stop", "name": "\uc11c\ub77c\ubc8c\uc911\ud559\uad50.\uc6b0\uc774\ub3d9\ub300\uc6b0\uc544\ud30c\ud2b8", "public_transport": "platform", "route_ref": "144;120;109;1161;151;153;1120;1144;1218;1166"}}, {"type": "node", "id": 357825588, "lat": 37.6450483, "lon": 127.0156413, "tags": {"bus": "yes", "highway": "bus_stop", "name": "\uc778\uc218\ub3d9\uc7a5\ubbf8\uc6d0", "public_transport": "platform", "route_ref": "144;1218;1144;109;104;1166"}}, {"type": "node", "id": 357825607, "lat": 37.6180197, "lon": 127.0255179, "tags": {"bus": "yes", "highway": "bus_stop", "name": "\uc131\uc554\uad6d\uc81c\ubb34\uc5ed\uace0.\uc131\uc554\uc5ec\uc911", "public_transport": "platform", "route_ref": "144;1115;1165;1128"}}, {"type": "node", "id": 357825609, "lat": 37.6059203, "lon": 127.0311408, "tags": {"bus": "yes", "highway": "bus_stop", "name": "\uc131\uac00\ubcf5\uc9c0\ubcd1\uc6d0", "name:en": "Seonggabokji Hospital", "name:ko": "\uc131\uac00\ubcf5\uc9c0\ubcd1\uc6d0", "name:ko-Latn": "Seonggabokjibyeongwon", "public_transport": "platform", "route_ref": "144;1128;141;1125;1165;100;1115;130"}}, {"type": "node", "id": 357825620, "lat": 37.58885, "lon": 127.0351, "tags": {"bus": "yes", "highway": "bus_stop", "name": "\uace0\ub300\uc55e", "name:en": "Godae Front", "name:ja": "\u9ad8\u9e97\u5927\u524d", "name:ko": "\uace0\ub300\uc55e", "name:ko-Latn": "Godaeap", "public_transport": "platform", "route_ref": "144;100;1017;273;1111;7211;163", "wheelchair": "yes"}}, {"type": "node", "id": 357825636, "lat": 37.6192267, "lon": 127.0215782, "tags": {"bus": "yes", "highway": "bus_stop", "name": "\uc0bc\uc591\ub3d9\uc0ac\uac70\ub9ac", "name:en": "Samyangdong Crossroad", "name:ko": "\uc0bc\uc591\ub3d9\uc0ac\uac70\ub9ac", "name:ko-Latn": "Samyangdongsageori", "public_transport": "platform", "route_ref": "144;1128;1165;1115"}}, {"type": "node", "id": 357825637, "lat": 37.6218887, "lon": 127.02024, "tags": {"bus": "yes", "highway": "bus_stop", "name": "\uc0bc\uc591\uc0ac\uac70\ub9ac\uc5ed", "public_transport": "platform", "route_ref": "144;109;104;1128;1166;410"}}, {"type": "node", "id": 357825826, "lat": 37.60885, "lon": 127.06469, "tags": {"bus": "yes", "highway": "bus_stop", "name": "\uc11d\uad00\uace0\ub4f1\ud559\uad50", "name:en": "Seokgwan High School", "name:ko": "\uc11d\uad00\uace0\ub4f1\ud559\uad50", "name:ko-Latn": "Seokgwangodeunghakgyo", "public_transport": "platform", "route_ref": "145;1125;1218"}}, {"type": "node", "id": 357825878, "lat": 37.61388, "lon": 127.05975, "tags": {"bus": "yes", "highway": "bus_stop", "name": "\uc7a5\uc704\uc790\uc774\ub808\ub514\uc5b8\ud2b8\uc544\ud30c\ud2b8", "name:en": "Jangsam Gas Station", "name:ko-Latn": "Jangsamjuyuso", "public_transport": "platform", "route_ref": "145;1218;148;1125"}}, {"type": "node", "id": 357825893, "lat": 37.63109, "lon": 127.04094, "tags": {"bus": "yes", "highway": "bus_stop", "name": "\ucd08\uc548\uad50", "name:en": "Choangyo", "name:ko": "\ucd08\uc548\uad50", "name:ko-Latn": "Choangyo", "public_transport": "platform", "route_ref": "145;148;1124;1125;1218"}}, {"type": "node", "id": 357825905, "lat": 37.62673, "lon": 127.04739, "tags": {"bus": "yes", "highway": "bus_stop", "name": "\ubc88\ub3d9\uc8fc\uacf51\ub2e8\uc9c0", "name:en": "Beondongjugong 1 Complex", "name:ko": "\ubc88\ub3d9\uc8fc\uacf51\ub2e8\uc9c0", "name:ko-Latn": "Beondongjugong 1 Danji", "public_transport": "platform", "route_ref": "145;148;1218;1125"}}, {"type": "node", "id": 357825912, "lat": 37.62861, "lon": 127.04429, "tags": {"bus": "yes", "highway": "bus_stop", "name": "\ubc88\ub3d9\uc8fc\uacf53\ub2e8\uc9c0", "name:en": "Beondongjugong 3 Complex", "name:ko": "\ubc88\ub3d9\uc8fc\uacf53\ub2e8\uc9c0", "name:ko-Latn": "Beondongjugong 3 Danji", "public_transport": "platform", "route_ref": "145;1125;148;1218"}}, {"type": "node", "id": 357826081, "lat": 37.61176, "lon": 127.06153, "tags": {"bus": "yes", "highway": "bus_stop", "name": "\uc7a5\uc704\uc0ac\uac70\ub9ac", "name:en": "Jangwi Crossroad", "name:ko": "\uc7a5\uc704\uc0ac\uac70\ub9ac", "name:ko-Latn": "Jangwisageori", "public_transport": "platform", "route_ref": "145;1215;1218;1125"}}, {"type": "node", "id": 357826116, "lat": 37.62564, "lon": 127.04794, "tags": {"bus": "yes", "highway": "bus_stop", "name": "\ubc88\ub3d9\uc8fc\uacf51\ub2e8\uc9c0", "name:en": "Beondongjugong 1 Complex", "name:ko": "\ubc88\ub3d9\uc8fc\uacf51\ub2e8\uc9c0", "name:ko-Latn": "Beondongjugong 1 Danji", "public_transport": "platform", "route_ref": "145;148;1125;1218"}}, {"type": "node", "id": 357826287, "lat": 37.6786674, "lon": 127.0531628, "tags": {"bus": "yes", "highway": "bus_stop", "name": "\ub450\uc0b0\uc544\ud30c\ud2b8.\ud55c\uad6d\ub3c4\uc2ec\uacf5\ud56d\uc218\ub77d\ud130\ubbf8\ub110", "name:ko": "\ub450\uc0b0\uc544\ud30c\ud2b8.\ud55c\uad6d\ub3c4\uc2ec\uacf5\ud56d\uc218\ub77d\ud130\ubbf8\ub110", "public_transport": "platform", "route_ref": "146;1139"}}, {"type": "node", "id": 357826299, "lat": 37.63482, "lon": 127.06891, "tags": {"bus": "yes", "highway": "bus_stop", "name": "\ud558\uacc4\ubbf8\uc131\uc544\ud30c\ud2b8", "name:en": "Hagyemiseong Apt.", "name:ko": "\ud558\uacc4\ubbf8\uc131\uc544\ud30c\ud2b8", "name:ko-Latn": "Hagyemiseongapateu", "public_transport": "platform", "route_ref": "146;105;1224"}}, {"type": "node", "id": 357826308, "lat": 37.6428933, "lon": 127.0651915, "tags": {"bench": "yes", "bin": "no", "bus": "yes", "highway": "bus_stop", "name": "\uc911\uacc4\uc5ed", "name:en": "Junggye Station", "name:ja": "\u4e2d\u6e13\u99c5", "name:ko": "\uc911\uacc4\uc5ed", "name:ko-Latn": "Junggyeyeok", "public_transport": "platform", "route_ref": "146;105;1135;1137;149;1140", "shelter": "yes", "tactile_paving": "yes"}}, {"type": "node", "id": 357826337, "lat": 37.62253, "lon": 127.0742, "tags": {"bus": "yes", "highway": "bus_stop", "name": "\uacf5\ub989\uc2dc\uc7a5", "name:en": "Gongneung Market", "name:ko": "\uacf5\ub989\uc2dc\uc7a5", "name:ko-Latn": "Gongneungsijang", "public_transport": "platform", "route_ref": "146;105"}}, {"type": "node", "id": 357826339, "lat": 37.6264946, "lon": 127.0726471, "tags": {"bus": "yes", "highway": "bus_stop", "name": "\uacf5\ub989\uc5ed1\ubc88\ucd9c\uad6c", "name:en": "Gongneungyeok 1 Beon Exit", "name:ko": "\uacf5\ub989\uc5ed1\ubc88\ucd9c\uad6c", "name:ko-Latn": "Gongneungyeok 1 Beonchulgu", "public_transport": "platform", "route_ref": "146;105"}}, {"type": "node", "id": 357826478, "lat": 37.626548, "lon": 127.0724601, "tags": {"bus": "yes", "highway": "bus_stop", "name": "\uacf5\ub989\uc5ed4\ubc88\ucd9c\uad6c", "name:en": "Gongneungyeok 4 Beon Exit", "name:ko": "\uacf5\ub989\uc5ed4\ubc88\ucd9c\uad6c", "name:ko-Latn": "Gongneungyeok 4 Beonchulgu", "public_transport": "platform", "route_ref": "146;105"}}, {"type": "node", "id": 357826480, "lat": 37.62826, "lon": 127.07142, "tags": {"bus": "yes", "highway": "bus_stop", "name": "\uc11c\uc6b8\uacfc\ud559\uae30\uc220\ub300\uc785\uad6c", "name:en": "Saneopdae Entrance", "name:ko": "\uc11c\uc6b8\uacfc\ud559\uae30\uc220\ub300\uc785\uad6c", "name:ko-Latn": "Saneopdaeipgu", "public_transport": "platform", "route_ref": "146;105"}}, {"type": "node", "id": 357826486, "lat": 37.639421, "lon": 127.0666257, "tags": {"bus": "yes", "highway": "bus_stop", "name": "\ub178\uc6d0\uad6c\ubbfc\uc758\uc804\ub2f9", "public_transport": "platform", "route_ref": "146;1140;1137;1135;1131;105"}}, {"type": "node", "id": 357826499, "lat": 37.6623445, "lon": 127.0582011, "tags": {"bus": "yes", "highway": "bus_stop", "name": "\uc0c1\uacc4\uc8fc\uacf510\ub2e8\uc9c0", "name:en": "Sanggyejugong 10 Complex", "name:ko": "\uc0c1\uacc4\uc8fc\uacf510\ub2e8\uc9c0", "name:ko-Latn": "Sanggyejugong 10 Danji", "public_transport": "platform", "route_ref": "146;1154;1153;1139;1137"}}, {"type": "node", "id": 357826501, "lat": 37.6685317, "lon": 127.0565679, "tags": {"bus": "yes", "highway": "bus_stop", "name": "\uc0c1\uacc4\uc8fc\uacf515\ub2e8\uc9c0", "name:en": "Sanggyejugong 15 Complex", "name:ko": "\uc0c1\uacc4\uc8fc\uacf515\ub2e8\uc9c0", "name:ko-Latn": "Sanggyejugong 15 Danji", "public_transport": "platform", "route_ref": "146;1154;1129;1139;1143;1153;1152"}}, {"type": "node", "id": 357826517, "lat": 37.6784781, "lon": 127.0534253, "tags": {"bus": "yes", "highway": "bus_stop", "name": "\ub450\uc0b0\uc544\ud30c\ud2b8.\ud55c\uad6d\ub3c4\uc2ec\uacf5\ud56d\uc218\ub77d\ud130\ubbf8\ub110", "name:ko": "\ub450\uc0b0\uc544\ud30c\ud2b8.\ud55c\uad6d\ub3c4\uc2ec\uacf5\ud56d\uc218\ub77d\ud130\ubbf8\ub110", "public_transport": "platform", "route_ref": "146;1139"}}, {"type": "node", "id": 357826581, "lat": 37.66161, "lon": 127.05453, "tags": {"bus": "yes", "highway": "bus_stop", "name": "\ub178\uc6d0\uace0\ub4f1\ud559\uad50", "name:en": "Nowon High School", "name:ko": "\ub178\uc6d0\uace0\ub4f1\ud559\uad50", "name:ko-Latn": "Nowongodeunghakgyo", "public_transport": "platform", "route_ref": "146;1144"}}, {"type": "node", "id": 357826587, "lat": 37.66135, "lon": 127.05768, "tags": {"bus": "yes", "highway": "bus_stop", "name": "\uc0c1\uacc4\uc8fc\uacf510\ub2e8\uc9c0\uc0c1\uac00", "name:en": "Sanggyejugong 10 Danji Arcade", "name:ko": "\uc0c1\uacc4\uc8fc\uacf510\ub2e8\uc9c0\uc0c1\uac00", "name:ko-Latn": "Sanggyejugong 10 Danjisangga", "public_transport": "platform", "route_ref": "146;1144"}}, {"type": "node", "id": 357826595, "lat": 37.6062, "lon": 127.0478, "tags": {"bus": "yes", "highway": "bus_stop", "name": "\uc6d4\uace1\uc911\ud559\uad50", "name:en": "Wolgok Middle School", "name:ko": "\uc6d4\uace1\uc911\ud559\uad50", "name:ko-Latn": "Wolgokjunghakgyo", "public_transport": "platform", "route_ref": "148;163;120;1113"}}, {"type": "node", "id": 357826602, "lat": 37.60292, "lon": 127.03514, "tags": {"bus": "yes", "highway": "bus_stop", "name": "\uc6d4\uace1\uc804\ud654\uad6d", "name:en": "Wolgok Telephone Office", "name:ko": "\uc6d4\uace1\uc804\ud654\uad6d", "name:ko-Latn": "Wolgokjeonhwaguk", "public_transport": "platform", "route_ref": "148;1115;1165;163;1017;1111"}}, {"type": "node", "id": 357826607, "lat": 37.5992021, "lon": 127.0342514, "tags": {"bus": "yes", "highway": "bus_stop", "name": "\uc885\uc554\ub3d9\uc8fc\ubbfc\uc13c\ud130", "name:en": "Jongam 2 Office", "name:ko-Latn": "Jongam 2 Dongsamuso", "public_transport": "platform", "route_ref": "148;1111;410;110;1125;130;1213;163;7211;1017;100;141;144"}}, {"type": "node", "id": 357826623, "lat": 37.6251622, "lon": 127.0513046, "tags": {"bus": "yes", "highway": "bus_stop", "name": "\ub86f\ub370\uce90\uc2ac\ub8e8\ub098\uc544\ud30c\ud2b8", "name:en": "Lotte Castle Runa Apt.", "name:ko": "\ub86f\ub370\uce90\uc2ac\ub8e8\ub098\uc544\ud30c\ud2b8", "name:ko-Latn": "Rotdekaeseullunaapateu", "public_transport": "platform", "route_ref": "147;172;149"}}, {"type": "node", "id": 357826646, "lat": 37.61409, "lon": 127.05917, "tags": {"bench": "no", "bin": "no", "bus": "yes", "highway": "bus_stop", "lit": "no", "name": "\uc7a5\uc704\uc790\uc774\ub808\ub514\uc5b8\ud2b8\uc544\ud30c\ud2b8", "name:en": "Jangsam Gas Station", "name:ko-Latn": "Jangsamjuyuso", "public_transport": "platform", "route_ref": "148;1218;145;1125", "shelter": "no", "tactile_paving": "yes"}}, {"type": "node", "id": 357826648, "lat": 37.6161225, "lon": 127.0572285, "tags": {"bus": "yes", "highway": "bus_stop", "name": "\uc131\ubd81\uccad\uc18c\ub144\uc13c\ud130", "name:en": "Jangwi 3 Office", "name:ko-Latn": "Jangwi 3 Dongsamuso", "public_transport": "platform", "route_ref": "148;145;1218;1125"}}, {"type": "node", "id": 357826650, "lat": 37.6106706, "lon": 127.0564289, "tags": {"bus": "yes", "highway": "bus_stop", "name": "\ub3cc\uacf6\uc774\uc5ed1\ubc88\ucd9c\uad6c", "name:en": "Dolgotji Station", "name:ja": "\u30c8\u30eb\u30b4\u30b8\u99c5", "name:ko-Latn": "Dolgotjiyeok", "public_transport": "platform", "route_ref": "148;120;163"}}, {"type": "node", "id": 357826652, "lat": 37.61202, "lon": 127.05891, "tags": {"bus": "yes", "highway": "bus_stop", "name": "\uc7a5\uc704\ub3d9\ub3d9\uc6d0\ubca0\ub124\uc2a4\ud2b8", "name:en": "Jangwidongdongwonbeneseuteu", "name:ko": "\uc7a5\uc704\ub3d9\ub3d9\uc6d0\ubca0\ub124\uc2a4\ud2b8", "name:ko-Latn": "Jangwidongdongwonbeneseuteu", "public_transport": "platform", "route_ref": "148;1222;163"}}, {"type": "node", "id": 357826669, "lat": 37.61461, "lon": 127.05292, "tags": {"bus": "yes", "highway": "bus_stop", "name": "\uc7a5\uc704\ub3d9\uc6d0\ucc9c\uc8fc\uc720\uc18c", "name:en": "Jangwidongwoncheon Gas Station", "name:ko": "\uc7a5\uc704\ub3d9\uc6d0\ucc9c\uc8fc\uc720\uc18c", "name:ko-Latn": "Jangwidongwoncheonjuyuso", "public_transport": "platform", "route_ref": "147;261"}}, {"type": "node", "id": 357826681, "lat": 37.61791, "lon": 127.04752, "tags": {"bus": "yes", "highway": "bus_stop", "name": "\uc7a5\uace1\ucd08\uad50\uc55e", "name:en": "Janggok Elementary School Front", "name:ko": "\uc7a5\uace1\ucd08\uad50\uc55e", "name:ko-Latn": "Janggokchogyoap", "public_transport": "platform", "route_ref": "147", "shelter": "yes"}}, {"type": "node", "id": 357826870, "lat": 37.6319808, "lon": 127.0604231, "tags": {"bus": "yes", "highway": "bus_stop", "name": "\uc6d4\uacc4\uc0ac\uc2b4\uc544\ud30c\ud2b83\ub2e8\uc9c0", "name:en": "Wolgyesaseum Apt. 3 Complex", "name:ko": "\uc6d4\uacc4\uc0ac\uc2b4\uc544\ud30c\ud2b83\ub2e8\uc9c0", "name:ko-Latn": "Wolgyesaseumapateu 3 Danji", "public_transport": "platform", "route_ref": "147;1131;1160"}}, {"type": "node", "id": 357826873, "lat": 37.6337833, "lon": 127.0590741, "tags": {"bus": "yes", "highway": "bus_stop", "name": "\uc6d4\uacc4\uc5ed1\ubc88\ucd9c\uad6c", "public_transport": "platform", "route_ref": "147;1160;1131"}}, {"type": "node", "id": 357826880, "lat": 37.6604, "lon": 127.06274, "tags": {"bus": "yes", "highway": "bus_stop", "name": "\uc0c1\uacc4\uc8fc\uacf57\ub2e8\uc9c0", "name:en": "Sanggyejugong 7 Complex", "name:ko": "\uc0c1\uacc4\uc8fc\uacf57\ub2e8\uc9c0", "name:ko-Latn": "Sanggyejugong 7 Danji", "public_transport": "platform", "route_ref": "146;1152;1129;105"}}, {"type": "node", "id": 357826898, "lat": 37.6120737, "lon": 127.0556038, "tags": {"bus": "yes", "highway": "bus_stop", "name": "\ub3cc\uacf6\uc774\uc5ed2\ubc88\ucd9c\uad6c", "name:en": "Jangwi 2 Office", "name:ko-Latn": "Jangwi 2 Dongsamuso", "public_transport": "platform", "route_ref": "147;261"}}, {"type": "node", "id": 357826901, "lat": 37.6146975, "lon": 127.0525598, "tags": {"bus": "yes", "departures_board": "realtime", "highway": "bus_stop", "name": "\uc7a5\uc704\ub3d9\uc6d0\ucc9c\uc8fc\uc720\uc18c", "name:en": "Jangwidongwoncheon Gas Station", "name:ko": "\uc7a5\uc704\ub3d9\uc6d0\ucc9c\uc8fc\uc720\uc18c", "name:ko-Latn": "Jangwidongwoncheonjuyuso", "public_transport": "platform", "ref": "08205", "route_ref": "147;261"}}, {"type": "node", "id": 357826903, "lat": 37.61618, "lon": 127.04997, "tags": {"bus": "yes", "highway": "bus_stop", "name": "\ud558\ub098\uc740\ud589\uc7a5\uc704\ub3d9\uc9c0\uc810", "name:en": "Hana Bank Jangwidongjijeom", "name:ko": "\ud558\ub098\uc740\ud589\uc7a5\uc704\ub3d9\uc9c0\uc810", "name:ko-Latn": "Hanaeunhaengjangwidongjijeom", "public_transport": "platform", "route_ref": "147;261"}}, {"type": "node", "id": 357826907, "lat": 37.61767, "lon": 127.04754, "tags": {"bus": "yes", "highway": "bus_stop", "name": "\uc7a5\uace1\ucd08\uad50\uc55e", "name:en": "Janggok Elementary School Front", "name:ko": "\uc7a5\uace1\ucd08\uad50\uc55e", "name:ko-Latn": "Janggokchogyoap", "public_transport": "platform", "route_ref": "147"}}, {"type": "node", "id": 357827069, "lat": 37.6392557, "lon": 127.068989, "tags": {"bus": "yes", "highway": "bus_stop", "name": "\ud558\uacc4\ud55c\uc2e0\uccad\uad6c\uc544\ud30c\ud2b8", "name:en": "Hagyehansincheonggu Apt.", "name:ko": "\ud558\uacc4\ud55c\uc2e0\uccad\uad6c\uc544\ud30c\ud2b8", "name:ko-Latn": "Hagyehansincheongguapateu", "public_transport": "platform", "route_ref": "149;1160"}}, {"type": "node", "id": 357827208, "lat": 37.6448812, "lon": 127.0709927, "tags": {"bus": "yes", "highway": "bus_stop", "name": "\ud558\uacc4\ud604\ub300\uc544\ud30c\ud2b8", "name:en": "Hagyehyeondae Apt.", "name:ko": "\ud558\uacc4\ud604\ub300\uc544\ud30c\ud2b8", "name:ko-Latn": "Hagyehyeondaeapateu", "public_transport": "platform", "route_ref": "149;1131;1154;1224"}}, {"type": "node", "id": 357827228, "lat": 37.6178699, "lon": 127.0429391, "tags": {"bench": "yes", "bus": "yes", "highway": "bus_stop", "name": "\uc7a5\uc704\ub3d9\uadf8\ub9b0\ube4c\uc544\ud30c\ud2b8", "name:en": "Jangwidong Green Bil Apt.", "name:ko": "\uc7a5\uc704\ub3d9\uadf8\ub9b0\ube4c\uc544\ud30c\ud2b8", "name:ko-Latn": "Jangwidonggeurinbirapateu", "public_transport": "platform", "route_ref": "149", "shelter": "yes"}}, {"type": "node", "id": 357827449, "lat": 37.60675, "lon": 127.04965, "tags": {"bus": "yes", "highway": "bus_stop", "name": "\uc6d4\uace1\uc911\ud559\uad50", "name:en": "Wolgok Middle School", "name:ko": "\uc6d4\uace1\uc911\ud559\uad50", "name:ko-Latn": "Wolgokjunghakgyo", "public_transport": "platform", "route_ref": "148;163;120"}}, {"type": "node", "id": 357827453, "lat": 37.6029844, "lon": 127.0427885, "tags": {"bus": "yes", "highway": "bus_stop", "name": "\ub3d9\ub355\uc5ec\ub300\uc55e", "name:en": "Dongdeokyeodae Front", "name:ja": "\u540c\u5fb3\u5973\u5b50\u5927\u524d", "name:ko": "\ub3d9\ub355\uc5ec\ub300\uc55e", "name:ko-Latn": "Dongdeokyeodaeap", "public_transport": "platform", "route_ref": "148;1226;163;120;1113"}}, {"type": "node", "id": 357827455, "lat": 37.60159, "lon": 127.04153, "tags": {"bus": "yes", "highway": "bus_stop", "name": "\uc6d4\uace1\uc5ed", "name:en": "Wolgok Station", "name:ko": "\uc6d4\uace1\uc5ed", "name:ko-Latn": "Wolgokyeok", "public_transport": "platform", "route_ref": "148;163;1113;120;1226"}}, {"type": "node", "id": 357827461, "lat": 37.61123, "lon": 127.05823, "tags": {"bus": "yes", "highway": "bus_stop", "name": "\ub3cc\uacf6\uc774\uc5ed5\ubc88\ucd9c\uad6c", "name:en": "Dolgotji Station", "name:ja": "\u30c8\u30eb\u30b4\u30b8\u99c5", "name:ko-Latn": "Dolgotjiyeok", "public_transport": "platform", "route_ref": "148;1215;1222;163"}}, {"type": "node", "id": 357827494, "lat": 37.633819, "lon": 127.0647336, "tags": {"bus": "yes", "highway": "bus_stop", "name": "\ud558\uacc4\uadf9\ub3d9\uc544\ud30c\ud2b8", "name:en": "Hagyegeukdong Apt.", "name:ko": "\ud558\uacc4\uadf9\ub3d9\uc544\ud30c\ud2b8", "name:ko-Latn": "Hagyegeukdongapateu", "public_transport": "platform", "route_ref": "149;1137;172;1131;1140;1160"}}, {"type": "node", "id": 357827530, "lat": 37.6234433, "lon": 127.0482214, "tags": {"bus": "yes", "highway": "bus_stop", "name": "\uc624\ud604\ucd08\ub4f1\ud559\uad50", "name:en": "Ohyeon Elementary School", "name:ko": "\uc624\ud604\ucd08\ub4f1\ud559\uad50", "name:ko-Latn": "Ohyeonchodeunghakgyo", "public_transport": "platform", "route_ref": "149;147"}}, {"type": "node", "id": 357827535, "lat": 37.6189106, "lon": 127.0440766, "tags": {"bench": "yes", "bin": "yes", "bus": "yes", "highway": "bus_stop", "name": "\ubd81\uc11c\uc6b8\uafc8\uc758\uc232", "name:ko": "\ubd81\uc11c\uc6b8\uafc8\uc758\uc232", "public_transport": "platform", "route_ref": "149", "shelter": "yes", "tactile_paving": "yes"}}, {"type": "node", "id": 357827539, "lat": 37.63263, "lon": 127.03903, "tags": {"bus": "yes", "highway": "bus_stop", "name": "\uac15\ubd81\ubcf4\uac74\uc18c", "name:en": "Gangbuk Public Health Center", "name:ko": "\uac15\ubd81\ubcf4\uac74\uc18c", "name:ko-Latn": "Gangbukbogeonso", "public_transport": "platform", "route_ref": "148;145;1125;1218"}}, {"type": "node", "id": 357827547, "lat": 37.6344054, "lon": 127.0363161, "tags": {"bus": "yes", "highway": "bus_stop", "name": "\ud55c\uc131\uc6b4\uc218\ucc28\uace0\uc9c0", "name:en": "Hanseongunsu Garage", "name:ko": "\ud55c\uc131\uc6b4\uc218\ucc28\uace0\uc9c0", "name:ko-Latn": "Hanseongunsuchagoji", "public_transport": "platform", "route_ref": "148;1124;1125;145"}}, {"type": "node", "id": 357827569, "lat": 37.6393068, "lon": 127.0688841, "tags": {"bus": "yes", "highway": "bus_stop", "name": "\ub178\uc6d0\ud3c9\uc0dd\ud559\uc2b5\uad00", "public_transport": "platform", "route_ref": "149"}}, {"type": "node", "id": 357827639, "lat": 37.6476898, "lon": 127.0121278, "tags": {"bus": "yes", "highway": "bus_stop", "name": "\uc6b0\uc774\ub3d9\uc8fc\ubbfc\uc13c\ud130\uc785\uad6c", "public_transport": "platform", "route_ref": "151"}}, {"type": "node", "id": 357827645, "lat": 37.6617715, "lon": 127.0132853, "tags": {"bus": "yes", "highway": "bus_stop", "name": "\uc6b0\uc774\ub3d9\uc131\uc6d0\uc544\ud30c\ud2b8", "name:en": "Uidongseongwon Apt.", "name:ko": "\uc6b0\uc774\ub3d9\uc131\uc6d0\uc544\ud30c\ud2b8", "name:ko-Latn": "Uidongseongwonapateu", "public_transport": "platform", "route_ref": "151;120;144;153;1161;1144;1218;1165;1166;109"}}, {"type": "node", "id": 357827662, "lat": 37.64005, "lon": 127.01212, "tags": {"bus": "yes", "highway": "bus_stop", "name": "\uc11c\uc6b8\uc601\uc5b4\ub9c8\uc744\uc218\uc720\ucea0\ud504.\uad6d\ub9bd\uc7ac\ud65c\uc6d0\uc785\uad6c", "name:en": "Seoul Yeongeo Village Suyukaempeu National Jaehwalwon Entrance", "name:ko-Latn": "Seoulyeongeomaeulsuyukaempeugungnipjaehwalwonipgu", "public_transport": "platform", "route_ref": "151;101"}}, {"type": "node", "id": 357827680, "lat": 37.6036448, "lon": 127.024152, "tags": {"bench": "yes", "bin": "yes", "bus": "yes", "highway": "bus_stop", "name": "\uae38\uc74c\ub274\ud0c0\uc6b4(\uc911)", "name:en": "Gileum New Town", "name:ko": "\uae38\uc74c\ub274\ud0c0\uc6b4", "name:ko-Latn": "Gileumnyutaun", "public_transport": "platform", "ref": "08003", "route_ref_1": "101;102;103;104;106;107;108;109;", "route_ref_2": "140;142;149;150;151;152;153;160;161;172;", "route_ref_3": "1018;1148", "shelter": "yes", "tactile_paving": "yes"}}, {"type": "node", "id": 357827684, "lat": 37.62918, "lon": 127.0128821, "tags": {"bus": "yes", "highway": "bus_stop", "name": "\uc11c\uc6b8\uc815\uc778\ud559\uad50", "name:en": "Seoul Jeonginhakgyo", "name:ko": "\uc11c\uc6b8\uc815\uc778\ud559\uad50", "name:ko-Latn": "Seouljeonginhakgyo", "public_transport": "platform", "route_ref": "152;1165"}}, {"type": "node", "id": 357827687, "lat": 37.6248781, "lon": 127.01234, "tags": {"bus": "yes", "highway": "bus_stop", "name": "\uad6c\uc138\uad70\uac15\ubd81\uc885\ud569\uc0ac\ud68c\ubcf5\uc9c0\uad00\uc785\uad6c", "name:en": "Gusegungangbukjonghap Social Welfare Hall Entrance", "name:ko": "\uad6c\uc138\uad70\uac15\ubd81\uc885\ud569\uc0ac\ud68c\ubcf5\uc9c0\uad00\uc785\uad6c", "name:ko-Latn": "Gusegungangbukjonghapsahoebokjigwanipgu", "public_transport": "platform", "route_ref": "152;1165"}}, {"type": "node", "id": 357827689, "lat": 37.6626211, "lon": 127.0127936, "tags": {"bus": "yes", "highway": "bus_stop", "name": "\uc6b0\uc774\ub3d9\ub3c4\uc120\uc0ac\uc785\uad6c.\ubd81\ud55c\uc0b0\uc6b0\uc774\uc5ed", "public_transport": "platform", "route_ref": "151;153"}}, {"type": "node", "id": 357827697, "lat": 37.6231912, "lon": 127.0130602, "tags": {"bus": "yes", "highway": "bus_stop", "name": "\uc194\uc0d8\uc911\uace0\ub4f1\ud559\uad50.\ud314\ud314.\ubbf8\uc1a1\uacbd\ub85c\ub2f9", "name:en": "Mia 1 Dong 2 Donggyeongnodang Front", "name:ko-Latn": "Mia 1 Dong 2 Donggyeongnodangap", "public_transport": "platform", "route_ref": "152;1165"}}, {"type": "node", "id": 357827728, "lat": 37.58237, "lon": 127.02076, "tags": {"bench": "yes", "bin": "no", "bus": "yes", "highway": "bus_stop", "lit": "yes", "name": "\ube0c\ub77c\uc6b4\ud638\ud154", "name:en": "Beuraun Hotel", "name:ko": "\ube0c\ub77c\uc6b4\ud638\ud154", "name:ko-Latn": "Beuraunhotel", "public_transport": "platform", "ref": "08181", "route_ref": "152;103;272;1014", "shelter": "yes", "tactile_paving": "yes"}}, {"type": "node", "id": 357827872, "lat": 37.5823818, "lon": 127.021055, "tags": {"bench": "yes", "bin": "no", "bus": "yes", "highway": "bus_stop", "lit": "yes", "name": "\ube0c\ub77c\uc6b4\ud638\ud154", "name:en": "Beuraun Hotel", "name:ko": "\ube0c\ub77c\uc6b4\ud638\ud154", "name:ko-Latn": "Beuraunhotel", "public_transport": "platform", "ref": "08182", "route_ref": "152;103;272", "shelter": "yes", "tactile_paving": "yes"}}, {"type": "node", "id": 357828042, "lat": 37.6463535, "lon": 127.0105025, "tags": {"bus": "yes", "highway": "bus_stop", "name": "\uad6d\ub9bd419\ubb18\uc9c0\uc785\uad6c\uc0bc\uac70\ub9ac.\uc724\uadf9\uc601\uac00\uc625", "name:en": "National 419 Cemetery Samgeori", "name:ko-Latn": "Gungnip 419 Myojisamgeori", "public_transport": "platform", "route_ref": "151;101"}}, {"type": "node", "id": 357828048, "lat": 37.6446256, "lon": 127.0107055, "tags": {"bus": "yes", "highway": "bus_stop", "name": "\uc778\uc218\ub3d9\ubc31\uc6b4\uad50\ud68c\uc785\uad6c", "name:en": "Baekwoon church entrance", "name:ko": "\uc778\uc218\ub3d9\ubc31\uc6b4\uad50\ud68c\uc785\uad6c", "public_transport": "platform", "route_ref": "151;101"}}, {"type": "node", "id": 357828052, "lat": 37.63416, "lon": 127.01895, "tags": {"bus": "yes", "highway": "bus_stop", "name": "\uad6d\ubbfc\uc740\ud589\uc218\uc720\uc11c\uc9c0\uc810", "name:en": "Gungmin Bank Suyuseojijeom", "name:ko": "\uad6d\ubbfc\uc740\ud589\uc218\uc720\uc11c\uc9c0\uc810", "name:ko-Latn": "Gungmineunhaengsuyuseojijeom", "public_transport": "platform", "route_ref": "151;1218;1165;1128;1144"}}, {"type": "node", "id": 357828060, "lat": 37.6338485, "lon": 127.0150007, "tags": {"bus": "yes", "highway": "bus_stop", "name": "\uc218\uc720\ub3d9\uc0bc\uc591\ud0d5\uc55e", "name:en": "Suyudongsamyangtang Front", "name:ko": "\uc218\uc720\ub3d9\uc0bc\uc591\ud0d5\uc55e", "name:ko-Latn": "Suyudongsamyangtangap", "public_transport": "platform", "route_ref": "151;1165;410"}}, {"type": "node", "id": 357828067, "lat": 37.6354425, "lon": 127.0131008, "tags": {"bus": "yes", "highway": "bus_stop", "name": "\ud55c\uc2e0\ub300\ud559\uad50", "name:en": "Hansin University", "name:ko-Latn": "Hansindaehakgyo", "public_transport": "platform", "route_ref": "151;101"}}, {"type": "node", "id": 357828069, "lat": 37.6400187, "lon": 127.0119314, "tags": {"bus": "yes", "highway": "bus_stop", "name": "\uc11c\uc6b8\uc601\uc5b4\ub9c8\uc744\uc218\uc720\ucea0\ud504.\uad6d\ub9bd\uc7ac\ud65c\uc6d0\uc785\uad6c", "name:en": "Seoul Yeongeo Village Suyukaempeu National Jaehwalwon Entrance", "name:ko-Latn": "Seoulyeongeomaeulsuyukaempeugungnipjaehwalwonipgu", "public_transport": "platform", "route_ref": "151;101"}}, {"type": "node", "id": 357828071, "lat": 37.63844, "lon": 127.01357, "tags": {"bus": "yes", "highway": "bus_stop", "name": "\uc6b0\uc774\ucd08\ub4f1\ud559\uad50\ud6c4\ubb38", "name:en": "Ui Elementary School Back Gate", "name:ko": "\uc6b0\uc774\ucd08\ub4f1\ud559\uad50\ud6c4\ubb38", "name:ko-Latn": "Uichodeunghakgyohumun", "public_transport": "platform", "route_ref": "151;101"}}, {"type": "node", "id": 357828217, "lat": 37.5893489, "lon": 127.0081455, "tags": {"bench": "yes", "bin": "yes", "bus": "yes", "highway": "bus_stop", "name": "\uc0bc\uc120\uad50\ud55c\uc131\ub300\ud559\uad50.\uc870\uc18c\uc554\ud65c\ub3d9\ud130(\uc911)", "public_transport": "platform", "route_ref": "151;160;162;161;172;171;272;273;1018;1148;602;101;102;104;106;107;108;109;140;143;149;150", "shelter": "yes", "tactile_paving": "yes"}}, {"type": "node", "id": 357828647, "lat": 37.613879, "lon": 127.0300602, "tags": {"bus": "yes", "highway": "bus_stop", "name": "\ubbf8\uc544\uc0ac\uac70\ub9ac\uc5ed", "name:en": "Miasageori Station", "name:ko": "\ubbf8\uc544\uc0ac\uac70\ub9ac\uc5ed", "name:ko-Latn": "Miasageori yeok", "public_transport": "platform", "route_ref": "153;1018;102;101;161;142;130;160;140;151;108;107;141;106;144;150;100;1148;2001"}}, {"type": "node", "id": 357828665, "lat": 37.5885011, "lon": 127.0172205, "tags": {"bus": "yes", "highway": "bus_stop", "name": "\uc131\ubd81\uad6c\uccad.\uc131\ubd81\uacbd\ucc30\uc11c", "name:en": "Seongbuk Office", "name:ko-Latn": "Seongbukgucheong", "public_transport": "platform", "route_ref": "152;273;272;142;103;1014;1111"}}, {"type": "node", "id": 357828670, "lat": 37.6234917, "lon": 127.0131229, "tags": {"bus": "yes", "highway": "bus_stop", "name": "\uc194\uc0d8\uc911\uace0\ub4f1\ud559\uad50.\ud314\ud314.\ubbf8\uc1a1\uacbd\ub85c\ub2f9", "name:en": "Miadonggyeongnodang", "name:ko-Latn": "Miadonggyeongnodang", "public_transport": "platform", "route_ref": "152;1165"}}, {"type": "node", "id": 357828671, "lat": 37.62485, "lon": 127.01249, "tags": {"bus": "yes", "highway": "bus_stop", "name": "\uad6c\uc138\uad70\uac15\ubd81\uc885\ud569\uc0ac\ud68c\ubcf5\uc9c0\uad00\uc785\uad6c", "name:en": "Gusegungangbukjonghap Social Welfare Hall Entrance", "name:ko": "\uad6c\uc138\uad70\uac15\ubd81\uc885\ud569\uc0ac\ud68c\ubcf5\uc9c0\uad00\uc785\uad6c", "name:ko-Latn": "Gusegungangbukjonghapsahoebokjigwanipgu", "public_transport": "platform", "route_ref": "152;1165"}}, {"type": "node", "id": 357828673, "lat": 37.62912, "lon": 127.01307, "tags": {"bus": "yes", "highway": "bus_stop", "name": "\uc6b0\uad11\ud0c0\uc6b4", "name:en": "Ugwang Town", "name:ko": "\uc6b0\uad11\ud0c0\uc6b4", "name:ko-Latn": "Ugwangtaun", "public_transport": "platform", "route_ref": "152;1165"}}, {"type": "node", "id": 357828675, "lat": 37.6316, "lon": 127.01378, "tags": {"bus": "yes", "highway": "bus_stop", "name": "\ud61c\ud654\uc5ec\uace0", "name:en": "Hyehwayeogo", "name:ko": "\ud61c\ud654\uc5ec\uace0", "name:ko-Latn": "Hyehwayeogo", "public_transport": "platform", "route_ref": "152;1165"}}, {"type": "node", "id": 357828677, "lat": 37.618503, "lon": 127.0213932, "tags": {"bus": "yes", "highway": "bus_stop", "name": "\uc0bc\uc591\ub3d9\uc0ac\uac70\ub9ac.\ub798\ubbf8\uc548\ud2b8\ub9ac\ubca0\ub77c", "public_transport": "platform", "route_ref": "152;104;410;109"}}, {"type": "node", "id": 357828679, "lat": 37.6199127, "lon": 127.0188569, "tags": {"bus": "yes", "highway": "bus_stop", "name": "\ub3d9\ubd81\ud504\ub77c\uc790", "name:en": "Dongbuk Market", "name:ko-Latn": "Dongbuksijang", "public_transport": "platform", "route_ref": "152;1165;1166;1115"}}, {"type": "node", "id": 357828876, "lat": 37.6004895, "lon": 127.0138061, "tags": {"bench": "yes", "bin": "no", "bus": "yes", "highway": "bus_stop", "name": "\uc544\ub9ac\ub791\uace0\uac1c", "name:en": "Arirang Hill", "name:ja": "\u30a2\u30ea\u30e9\u30f3\u5ce0", "name:ko": "\uc544\ub9ac\ub791\uace0\uac1c", "name:ko-Latn": "Ariranggogae", "public_transport": "platform", "route_ref": "162;1212;1014", "shelter": "yes", "tactile_paving": "yes"}}, {"type": "node", "id": 357828888, "lat": 37.6028931, "lon": 127.0135037, "tags": {"bench": "yes", "bin": "no", "bus": "yes", "highway": "bus_stop", "name": "\uc815\ub989\uc785\uad6c", "name:en": "Jeongneung Entrance", "name:ko": "\uc815\ub989\uc785\uad6c", "name:ko-Latn": "Jeongneungipgu", "public_transport": "platform", "route_ref": "162;1212;1014", "shelter": "yes", "tactile_paving": "yes"}}, {"type": "node", "id": 357829039, "lat": 37.608671, "lon": 127.0525462, "tags": {"bus": "yes", "highway": "bus_stop", "name": "\uc7a5\uc704\uc544\ud2b8\ud3ec\ub808.\uc7a5\uc704\uc804\ud1b5\uc2dc\uc7a5\uc785\uad6c", "name:en": "Saeseokgwan Market", "name:ko-Latn": "Saeseokgwansijang", "public_transport": "platform", "route_ref": "163;148;120"}}, {"type": "node", "id": 357829046, "lat": 37.6135, "lon": 127.06154, "tags": {"bus": "yes", "highway": "bus_stop", "name": "\uc11d\uad00\ub3d9\uc8fc\ubbfc\uc13c\ud130", "name:en": "Seokgwan 1 Office", "name:ko-Latn": "Seokgwan 1 Dongsamuso", "public_transport": "platform", "route_ref": "163;1222"}}, {"type": "node", "id": 357829069, "lat": 37.62257, "lon": 127.06156, "tags": {"bus": "yes", "highway": "bus_stop", "name": "\uad11\uc6b4\ub300\uc5ed", "name:en": "Kwangwoon Univ. Station", "name:ko": "\uad11\uc6b4\ub300\uc5ed", "public_transport": "platform", "route_ref": "163;261;1133;1130"}}, {"type": "node", "id": 357829325, "lat": 37.60061, "lon": 127.01374, "tags": {"bench": "yes", "bin": "no", "bus": "yes", "highway": "bus_stop", "lit": "yes", "name": "\uc544\ub9ac\ub791\uace0\uac1c", "name:en": "Arirang Hill", "name:ja": "\u30a2\u30ea\u30e9\u30f3\u5ce0", "name:ko": "\uc544\ub9ac\ub791\uace0\uac1c", "name:ko-Latn": "Ariranggogae", "public_transport": "platform", "ref": "08-265", "route_ref": "162;1212;1162;1014", "shelter": "yes", "tactile_paving": "yes"}}, {"type": "node", "id": 357829348, "lat": 37.6411907, "lon": 127.0290042, "tags": {"bus": "yes", "highway": "bus_stop", "name": "\uc218\uc7203\ub3d9\uc6b0\uccb4\uad6d", "name:en": "Suyu 3 Dong Post Office", "name:ko": "\uc218\uc7203\ub3d9\uc6b0\uccb4\uad6d", "name:ko-Latn": "Suyu 3 Dongucheguk", "public_transport": "platform", "route_ref": "161;160;150;141;142;1138;1148;1018;107;108;130;100;1151;140;106"}}, {"type": "node", "id": 357829482, "lat": 37.618747, "lon": 127.0524997, "tags": {"bus": "yes", "highway": "bus_stop", "name": "\uc7a5\uc704\ub798\ubbf8\uc548\uc544\ud30c\ud2b8", "name:en": "Gungmin Bank Jangwi 1 Dongjijeom", "name:ko-Latn": "Gungmineunhaengjangwi 1 Dongjijeom", "public_transport": "platform", "route_ref": "172;103;1017;1137;261"}}, {"type": "node", "id": 357829497, "lat": 37.6364287, "lon": 127.0691042, "tags": {"bus": "yes", "highway": "bus_stop", "name": "\ud558\uacc4\ubbf8\uc131\uc544\ud30c\ud2b8.\uc744\uc9c0\ubcd1\uc6d0", "public_transport": "platform", "route_ref": "172;1144;1141;1135;1224;149"}}, {"type": "node", "id": 357829499, "lat": 37.6373951, "lon": 127.0706983, "tags": {"bus": "yes", "highway": "bus_stop", "name": "\ud55c\uc131\uc5ec\uac1d\uc885\uc810", "name:en": "Hanseongyeogaek Last stop", "name:ko": "\ud55c\uc131\uc5ec\uac1d\uc885\uc810", "name:ko-Latn": "Hanseongyeogaekjongjeom", "public_transport": "platform", "route_ref": "172;1224;1141"}}, {"type": "node", "id": 357829501, "lat": 37.6341008, "lon": 127.0654234, "tags": {"bus": "yes", "highway": "bus_stop", "name": "\ud558\uacc4\uc2dc\uc601\uc544\ud30c\ud2b8", "name:en": "Hagyesiyeong Apt.", "name:ko": "\ud558\uacc4\uc2dc\uc601\uc544\ud30c\ud2b8", "name:ko-Latn": "Hagyesiyeongapateu", "public_transport": "platform", "route_ref": "172;149;1137;1140;1160;1131"}}, {"type": "node", "id": 357829543, "lat": 37.6028216, "lon": 127.0182899, "tags": {"bus": "yes", "highway": "bus_stop", "name": "\uae38\uc74c\ub274\ud0c0\uc6b410\ub2e8\uc9c0.\ub77c\uc628\uc720\uc544\ud30c\ud2b8", "public_transport": "platform", "route_ref": "171;1213;1116;7211;153;143;110;1112;1113;1164;1114"}}, {"type": "node", "id": 357829552, "lat": 37.6061806, "lon": 127.007513, "tags": {"bus": "yes", "highway": "bus_stop", "name": "\ubd09\uad6d\uc0ac", "name:en": "Bongguksa", "name:ko": "\ubd09\uad6d\uc0ac", "name:ko-Latn": "Bongguksa", "public_transport": "platform", "route_ref": "171;1114;7211;1112;153;1213;110"}}, {"type": "node", "id": 357829663, "lat": 37.61944, "lon": 127.05336, "tags": {"bus": "yes", "highway": "bus_stop", "name": "\uad11\uc6b4\ucd08\uad50\uc55e", "name:en": "Gwangun Elementary School Front", "name:ko": "\uad11\uc6b4\ucd08\uad50\uc55e", "name:ko-Latn": "Gwangunchogyoap", "public_transport": "platform", "route_ref": "172;1137;1017;261;103"}}, {"type": "node", "id": 357829665, "lat": 37.623265, "lon": 127.0504069, "tags": {"bus": "yes", "highway": "bus_stop", "name": "\uc6d4\uacc42\uad50.\ucc38\ub204\ub9ac\uc544\ud30c\ud2b8", "public_transport": "platform", "ref": "08185", "route_ref": "172;103;145;148;1125;1218"}}, {"type": "node", "id": 357829667, "lat": 37.6261487, "lon": 127.0525424, "tags": {"bus": "yes", "highway": "bus_stop", "name": "\uc6d4\uacc4\uc8fc\uacf5108\ub3d9\uc55e\ub86f\ub370\uce90\uc2ac\ub8e8\ub098\uc544\ud30c\ud2b8", "public_transport": "platform", "route_ref": "172;149;147"}}, {"type": "node", "id": 357829678, "lat": 37.6172833, "lon": 127.0500026, "tags": {"bus": "yes", "highway": "bus_stop", "name": "\uc7a5\uace1\ucd08\uad50\uc0ac\uac70\ub9ac", "name:en": "Jangwi 1 Dong Community Credit Cooperative", "name:ko-Latn": "Jangwi 1 Dongsaemaeulgeumgo", "public_transport": "platform", "route_ref": "172;103;1017;1137;261"}}, {"type": "node", "id": 357829684, "lat": 37.6143474, "lon": 127.0407857, "tags": {"bus": "yes", "highway": "bus_stop", "name": "\uc7a5\uc704\ub3d9\uace0\uac1c", "name:en": "Jangwidong Hill", "name:ko": "\uc7a5\uc704\ub3d9\uace0\uac1c", "name:ko-Latn": "Jangwidonggogae", "public_transport": "platform", "route_ref": "172;103;1017;1137"}}, {"type": "node", "id": 357829730, "lat": 37.6022525, "lon": 127.0191574, "tags": {"bus": "yes", "highway": "bus_stop", "name": "\uc815\ub989\uae38\uc74c\uc2dc\uc7a5", "name:en": "Jeongneunggileum Market", "name:ko": "\uc815\ub989\uae38\uc74c\uc2dc\uc7a5", "name:ko-Latn": "Jeongneunggileumsijang", "public_transport": "platform", "route_ref": "171;1116;1164;153;143;1213;110;7211;1113;1112;1114"}}, {"type": "node", "id": 357829752, "lat": 37.608432, "lon": 127.0527921, "tags": {"bus": "yes", "highway": "bus_stop", "name": "\uc7a5\uc704\uc544\ud2b8\ud3ec\ub808.\uc7a5\uc704\uc804\ud1b5\uc2dc\uc7a5\uc785\uad6c", "name:en": "Saeseokgwan Market", "name:ko-Latn": "Saeseokgwansijang", "public_transport": "platform", "route_ref": "163;120;148"}}, {"type": "node", "id": 357830013, "lat": 37.60236, "lon": 127.03438, "tags": {"bus": "yes", "highway": "bus_stop", "name": "\uc6d4\uace1\uc804\ud654\uad6d", "name:en": "Wolgok Telephone Office", "name:ko": "\uc6d4\uace1\uc804\ud654\uad6d", "name:ko-Latn": "Wolgokjeonhwaguk", "public_transport": "platform", "route_ref": "163;148;1115;1017;1111"}}, {"type": "node", "id": 357830058, "lat": 37.602, "lon": 127.03744, "tags": {"bus": "yes", "highway": "bus_stop", "name": "\uc885\uc554SK\uc544\ud30c\ud2b8", "name:en": "Jongam SK Apt.", "name:ko": "\uc885\uc554SK\uc544\ud30c\ud2b8", "name:ko-Latn": "Jongam SK Apateu", "public_transport": "platform", "route_ref": "163;148;1111;1017"}}, {"type": "node", "id": 357830252, "lat": 37.6384657, "lon": 127.1084155, "tags": {"bus": "yes", "highway": "bus_stop", "name": "\uc0bc\uc721\ub300\uc55e", "name:en": "Samyukdae Front", "name:ko": "\uc0bc\uc721\ub300\uc55e", "name:ko-Latn": "Samyukdaeap", "public_transport": "platform", "route_ref": "202;1225;1155;1156"}}, {"type": "node", "id": 357830901, "lat": 37.61883, "lon": 127.07961, "tags": {"bus": "yes", "highway": "bus_stop", "name": "\uc8fc\uc720\uc18c\uc55e\ub2e4\uc6b4\ubcf5\uc9c0\uad00", "public_transport": "platform", "route_ref": "202;1132;1155;1225;1156"}}, {"type": "node", "id": 357830904, "lat": 37.6198702, "lon": 127.0834541, "tags": {"bus": "yes", "highway": "bus_stop", "name": "\ud654\ub791\ub300\uc5ed1\ubc88\ucd9c\uad6c", "name:en": "Hwarangdaeyeok 1 Beon Exit", "name:ko": "\ud654\ub791\ub300\uc5ed1\ubc88\ucd9c\uad6c", "name:ko-Latn": "Hwarangdaeyeok 1 Beonchulgu", "public_transport": "platform", "route_ref": "202;1156;1155;1225;1132"}}, {"type": "node", "id": 357830937, "lat": 37.6355934, "lon": 127.106171, "tags": {"bus": "yes", "highway": "bus_stop", "name": "\ud0dc\ub989\uad6d\uc81c\uc2a4\ucf00\uc774\ud2b8\uc7a5", "public_transport": "platform", "route_ref": "202;1155;1225;1156"}}, {"type": "node", "id": 357831111, "lat": 37.62614, "lon": 127.0945, "tags": {"bus": "yes", "highway": "bus_stop", "name": "\uc11c\uc6b8\uc5ec\ub300.\uc721\uad70\uc0ac\uad00\ud559\uad50\ud589\uc815\uc548\ub0b4\uc18c", "name:en": "Seoul Yeodae Front", "name:ja": "\u30bd\u30a6\u30eb\u5973\u5927\u524d", "name:ko-Latn": "Seoulyeodaeap", "public_transport": "platform", "route_ref": "202;1156;1225;1155"}}, {"type": "node", "id": 357831257, "lat": 37.61831, "lon": 127.07856, "tags": {"bus": "yes", "highway": "bus_stop", "name": "\uad6c\ubb35\ub3d9\uad50", "name:en": "Taereung Entrance", "name:ko-Hani": "\u6cf0\u9675\u5165\u53e3", "name:ko-Latn": "Taereungipgu", "public_transport": "platform", "route_ref": "202;1225"}}, {"type": "node", "id": 357831261, "lat": 37.62019, "lon": 127.08354, "tags": {"bus": "yes", "highway": "bus_stop", "name": "\ud654\ub791\ub300\uc5ed2\ubc88\ucd9c\uad6c", "name:en": "Hwarangdaeyeok 2 Beon Exit", "name:ko": "\ud654\ub791\ub300\uc5ed2\ubc88\ucd9c\uad6c", "name:ko-Latn": "Hwarangdaeyeok 2 Beonchulgu", "public_transport": "platform", "route_ref": "202;1156;1155;1132;1225"}}, {"type": "node", "id": 357831418, "lat": 37.61963, "lon": 127.06343, "tags": {"bench": "yes", "bus": "yes", "highway": "bus_stop", "name": "\uc6d4\uacc4\ud604\ub300\uc544\ud30c\ud2b8", "name:en": "Wolgyehyeondae Apt.", "name:ko": "\uc6d4\uacc4\ud604\ub300\uc544\ud30c\ud2b8", "name:ko-Latn": "Wolgyehyeondaeapateu", "public_transport": "platform", "route_ref": "261;163;1133;1130", "shelter": "yes"}}, {"type": "node", "id": 357831427, "lat": 37.6188901, "lon": 127.0566019, "tags": {"bus": "yes", "highway": "bus_stop", "name": "\uad11\uc6b4\uc911.\uad11\uc6b4\uc778\uacf5\uc9c0\ub2a5\uace0\ub4f1\ud559\uad50", "name:en": "Gwangun Electronic Technical High School", "name:ko-Latn": "Gwangunjeonjagongeopgodeunghakgyo", "public_transport": "platform", "route_ref": "261;1017;1137;1140;1146"}}, {"type": "node", "id": 357831468, "lat": 37.6147268, "lon": 127.0652103, "tags": {"bus": "yes", "highway": "bus_stop", "name": "\uc11d\uacc4\uc5ed1\ubc88\ucd9c\uad6c.B", "public_transport": "platform", "ref": "11481", "route_ref": "261"}}, {"type": "node", "id": 357831470, "lat": 37.61369, "lon": 127.06537, "tags": {"bus": "yes", "highway": "bus_stop", "name": "\uc11d\uacc4\uc5ed", "name:en": "Seokgye Station", "name:ko": "\uc11d\uacc4\uc5ed", "name:ko-Latn": "Seokgyeyeok", "public_transport": "platform", "route_ref": "261"}}, {"type": "node", "id": 357831471, "lat": 37.6107025, "lon": 127.0664669, "tags": {"bus": "yes", "highway": "bus_stop", "name": "\uc11d\uad00\uace0\ub4f1\ud559\uad50\ud6c4\ubb38", "name:en": "Seokgwan High School Back Gate", "name:ko": "\uc11d\uad00\uace0\ub4f1\ud559\uad50\ud6c4\ubb38", "name:ko-Latn": "Seokgwangodeunghakgyohumun", "public_transport": "platform", "route_ref": "261"}}, {"type": "node", "id": 357831473, "lat": 37.610854, "lon": 127.065996, "tags": {"bus": "yes", "highway": "bus_stop", "name": "260", "name:en": "260", "name:ko-Latn": "260", "public_transport": "platform"}}, {"type": "node", "id": 357832310, "lat": 37.6154091, "lon": 127.064494, "tags": {"bus": "yes", "highway": "bus_stop", "name": "\uc11d\uacc4\uc5ed", "name:en": "Seokgye Station", "name:ko": "\uc11d\uacc4\uc5ed", "name:ko-Latn": "Seokgyeyeok", "public_transport": "platform", "route_ref": "261"}}, {"type": "node", "id": 357832312, "lat": 37.61358, "lon": 127.06531, "tags": {"bus": "yes", "highway": "bus_stop", "name": "\uc11d\uacc4\uc5ed", "name:en": "Seokgye Station", "name:ko": "\uc11d\uacc4\uc5ed", "name:ko-Latn": "Seokgyeyeok", "public_transport": "platform", "route_ref": "261"}}, {"type": "node", "id": 357832314, "lat": 37.611, "lon": 127.06616, "tags": {"bus": "yes", "highway": "bus_stop", "name": "\uc0c1\uc9c4\uc6b4\uc218\uc885\uc810", "name:en": "Sangjinunsu Last stop", "name:ko": "\uc0c1\uc9c4\uc6b4\uc218\uc885\uc810", "name:ko-Latn": "Sangjinunsujongjeom", "public_transport": "platform", "route_ref": "261"}}, {"type": "node", "id": 357832404, "lat": 37.61939, "lon": 127.05359, "tags": {"bus": "yes", "highway": "bus_stop", "name": "\uad11\uc6b4\ucd08\uad50", "name:en": "Gwangun Elementary School", "name:ko": "\uad11\uc6b4\ucd08\uad50", "name:ko-Latn": "Gwangunchogyo", "public_transport": "platform", "route_ref": "261;1017;172;103;1137"}}, {"type": "node", "id": 357832412, "lat": 37.62264, "lon": 127.05996, "tags": {"bus": "yes", "highway": "bus_stop", "name": "\uc6d4\uacc4\uc0bc\uac70\ub9ac", "name:en": "Wolgyesamgeori", "name:ko": "\uc6d4\uacc4\uc0bc\uac70\ub9ac", "name:ko-Latn": "Wolgyesamgeori", "public_transport": "platform", "route_ref": "261;1137;1017"}}, {"type": "node", "id": 357832419, "lat": 37.61105, "lon": 127.05685, "tags": {"bus": "yes", "highway": "bus_stop", "name": "\ub3cc\uacf6\uc774\uc5ed3\ubc88\ucd9c\uad6c", "name:en": "Dolgotji Station", "name:ja": "\u30c8\u30eb\u30b4\u30b8\u99c5", "name:ko-Latn": "Dolgotjiyeok", "public_transport": "platform", "route_ref": "261;147"}}, {"type": "node", "id": 357832429, "lat": 37.61636, "lon": 127.05006, "tags": {"bus": "yes", "highway": "bus_stop", "name": "\ud558\ub098\uc740\ud589\uc7a5\uc704\ub3d9\uc9c0\uc810", "name:en": "Hana Bank Jangwidongjijeom", "name:ko": "\ud558\ub098\uc740\ud589\uc7a5\uc704\ub3d9\uc9c0\uc810", "name:ko-Latn": "Hanaeunhaengjangwidongjijeom", "public_transport": "platform", "route_ref": "261;147"}}, {"type": "node", "id": 357832433, "lat": 37.6117445, "lon": 127.0561721, "tags": {"bus": "yes", "highway": "bus_stop", "name": "\ub3cc\uacf6\uc774\uc5ed3\ubc88\ucd9c\uad6c", "name:en": "Jangwi 2 Office", "name:ko-Latn": "Jangwi 2 Dongsamuso", "public_transport": "platform", "route_ref": "261;147"}}, {"type": "node", "id": 357832592, "lat": 37.5857543, "lon": 127.0190003, "tags": {"bus": "yes", "highway": "bus_stop", "name": "\ubcf4\ubb38\uc5ed2\ubc88\ucd9c\uad6c", "name:en": "Bomun Station", "name:ko-Latn": "Bomunyeok", "public_transport": "platform", "route_ref": "272;142;103;1014;152"}}, {"type": "node", "id": 357832694, "lat": 37.5848868, "lon": 127.0197084, "tags": {"bench": "no", "bin": "no", "bus": "yes", "highway": "bus_stop", "lit": "no", "name": "\ubcf4\ubb38\uc5ed6\ubc88\ucd9c\uad6c", "name:en": "Bomun Station", "name:ko": "\ubcf4\ubb38\uc5ed", "name:ko-Latn": "Bomunyeok", "public_transport": "platform", "ref": "08180", "route_ref": "272;152;103", "shelter": "no", "tactile_paving": "no"}}, {"type": "node", "id": 357832896, "lat": 37.5862644, "lon": 127.0304848, "tags": {"bus": "yes", "highway": "bus_stop", "name": "\uc548\uc554\uc804\ucca0\uc5ed", "name:en": "Anam Station", "name:ko": "\uc548\uc554\uc804\ucca0\uc5ed", "name:ko-Latn": "Anamjeoncheolyeok", "public_transport": "platform", "route_ref": "273;1111;2115"}}, {"type": "node", "id": 357839077, "lat": 37.61471, "lon": 127.02207, "tags": {"bus": "yes", "highway": "bus_stop", "name": "\uc1a1\ucc9c\ucd08\ub4f1\ud559\uad50\ubbf8\uc544\ub3d9\uc0bc\uac01\uc0b0\uc544\uc774\uc6d0\uc785\uad6c", "name:en": "Songcheon Elementary School Miadongsamgaksanaiwon Entrance", "name:ko": "\uc1a1\ucc9c\ucd08\ub4f1\ud559\uad50\ubbf8\uc544\ub3d9\uc0bc\uac01\uc0b0\uc544\uc774\uc6d0\uc785\uad6c", "name:ko-Latn": "Songcheonchodeunghakgyomiadongsamgaksanaiwonipgu", "public_transport": "platform", "route_ref": "410;1116;152;109;104"}}, {"type": "node", "id": 357839092, "lat": 37.6037335, "lon": 127.0263646, "tags": {"bus": "yes", "highway": "bus_stop", "name": "\ub3c8\uc5541\ub3d9\uc8fc\ubbfc\uc13c\ud130", "public_transport": "platform", "route_ref": "410;7211;110;1213"}}, {"type": "node", "id": 357839491, "lat": 37.63395, "lon": 127.01664, "tags": {"bus": "yes", "highway": "bus_stop", "name": "\ud654\uacc4\uc0ac\uac70\ub9ac", "name:en": "Hwagye Crossroad", "name:ko": "\ud654\uacc4\uc0ac\uac70\ub9ac", "name:ko-Latn": "Hwagyesageori", "public_transport": "platform", "route_ref": "410;1165;151"}}, {"type": "node", "id": 357839495, "lat": 37.6252876, "lon": 127.0182877, "tags": {"bus": "yes", "highway": "bus_stop", "name": "\ub86f\ub370\ub9c8\ud2b8\uc0bc\uc591\uc810.\ub798\ubbf8\uc5481\ucc28\uc544\ud30c\ud2b8", "public_transport": "platform", "route_ref": "410;144;1128;109;104;1166"}}, {"type": "node", "id": 357842707, "lat": 37.63417, "lon": 127.0169, "tags": {"bus": "yes", "highway": "bus_stop", "name": "\ud654\uacc4\uc0ac\uac70\ub9ac", "name:en": "Hwagye Crossroad", "name:ko": "\ud654\uacc4\uc0ac\uac70\ub9ac", "name:ko-Latn": "Hwagyesageori", "public_transport": "platform", "route_ref": "410;151;1165"}}, {"type": "node", "id": 357842711, "lat": 37.63403, "lon": 127.01554, "tags": {"bus": "yes", "highway": "bus_stop", "name": "\uc218\uc720\ub3d9\uc0bc\uc591\ud0d5\uc55e", "name:en": "Suyudongsamyangtang Front", "name:ko": "\uc218\uc720\ub3d9\uc0bc\uc591\ud0d5\uc55e", "name:ko-Latn": "Suyudongsamyangtangap", "public_transport": "platform", "route_ref": "410;151;1165"}}, {"type": "node", "id": 357842785, "lat": 37.6010157, "lon": 127.03363, "tags": {"bus": "yes", "highway": "bus_stop", "name": "\uc885\uc554\uacbd\ucc30\uc11c", "name:en": "Jongam Police Station", "name:ko-Latn": "Jongamgyeongchalseo", "public_transport": "platform", "route_ref": "410;1017;163;110;130;141;148;7211;144;100;1125;1213;1111"}}, {"type": "node", "id": 357842826, "lat": 37.6254429, "lon": 127.0183851, "tags": {"bus": "yes", "highway": "bus_stop", "name": "\ub86f\ub370\ub9c8\ud2b8\uc0bc\uc591\uc810.\ub798\ubbf8\uc5481\ucc28\uc544\ud30c\ud2b8", "public_transport": "platform", "route_ref": "410;1128;144;104;1166;109"}}, {"type": "node", "id": 357857595, "lat": 37.6139393, "lon": 127.0427925, "tags": {"bus": "yes", "highway": "bus_stop", "name": "\uc7a5\uc7041\ub3d9\uc8fc\ubbfc\uc13c\ud130", "name:en": "Jangwi 1 Office", "name:ko-Latn": "Jangwi 1 Dongsamuso", "public_transport": "platform", "route_ref": "1017;1137;172;103"}}, {"type": "node", "id": 357857598, "lat": 37.6139325, "lon": 127.0461486, "tags": {"bus": "yes", "highway": "bus_stop", "name": "\uc7a5\uc7041\ub3d9\uce58\uc548\uc13c\ud130", "name:en": "Jangwi 1 Dong Police Box", "name:ko-Latn": "Jangwi 1 Dongpachulso", "public_transport": "platform", "route_ref": "1017;1137;172;103"}}, {"type": "node", "id": 357857599, "lat": 37.6107737, "lon": 127.0353827, "tags": {"bus": "yes", "highway": "bus_stop", "name": "\uc6d4\uace11\ub3d9\uc8fc\ubbfc\uc13c\ud130", "name:en": "Wolgok 1 Office", "name:ko": "\uc6d4\uace11\ub3d9\uc8fc\ubbfc\uc13c\ud130", "name:ko-Latn": "Wolgok 1 Dongsamuso", "public_transport": "platform", "route_ref": "1017;120;1111;1113"}}, {"type": "node", "id": 357857608, "lat": 37.6067546, "lon": 127.036599, "tags": {"bus": "yes", "highway": "bus_stop", "name": "\uc6d4\uace1\ub3d9\ub450\uc0b0\uc544\ud30c\ud2b8", "name:en": "Wolgokdongdusan Apt.", "name:ko": "\uc6d4\uace1\ub3d9\ub450\uc0b0\uc544\ud30c\ud2b8", "name:ko-Latn": "Wolgokdongdusanapateu", "public_transport": "platform", "route_ref": "1017;1113;1111;120"}}, {"type": "node", "id": 357857620, "lat": 37.6197229, "lon": 127.0580584, "tags": {"bus": "yes", "highway": "bus_stop", "name": "\uad11\uc6b4\ub300\ud559\uad50", "name:en": "Gwangun University", "name:ja": "\u5149\u4e91\u5927\u5b66\u6821", "name:ko": "\uad11\uc6b4\ub300\ud559\uad50", "name:ko-Latn": "Gwangundaehakgyo", "public_transport": "platform", "route_ref": "1017;261;1137;1140"}}, {"type": "node", "id": 357857628, "lat": 37.6138402, "lon": 127.0488001, "tags": {"bus": "yes", "highway": "bus_stop", "name": "\uccad\uc18c\ub144\ubb38\ud654\ub204\ub9bc\uc13c\ud130", "name:en": "Gungmin Bank Jangwidongjijeom", "name:ko-Latn": "Gungmineunhaengjangwidongjijeom", "public_transport": "platform", "route_ref": "1017;172;103;1137"}}, {"type": "node", "id": 357857634, "lat": 37.6166951, "lon": 127.0081921, "tags": {"bus": "yes", "highway": "bus_stop", "name": "\uc815\ub989\ub3d9\ud48d\ub9bc\uc0c1\uac00\uc55e", "name:en": "Jeongneungdongpungnim Arcade Front", "name:ko": "\uc815\ub989\ub3d9\ud48d\ub9bc\uc0c1\uac00\uc55e", "name:ko-Latn": "Jeongneungdongpungnimsanggaap", "public_transport": "platform", "route_ref": "1014;1114"}}, {"type": "node", "id": 357857637, "lat": 37.6184618, "lon": 127.0062667, "tags": {"bus": "yes", "highway": "bus_stop", "name": "\uc815\ub989\ucd08\uad50", "name:en": "Jeongneung Elementary School", "name:ko": "\uc815\ub989\ucd08\uad50", "name:ko-Latn": "Jeongneungchogyo", "public_transport": "platform", "route_ref": "1014;1114"}}, {"type": "node", "id": 357857651, "lat": 37.59603, "lon": 127.01563, "tags": {"bench": "yes", "bin": "no", "bus": "yes", "highway": "bus_stop", "lit": "no", "name": "\ub3c8\uc5542\ub3d9\uc0ac\ubb34\uc18c\uc785\uad6c\ud765\ucc9c\uc0ac", "name:en": "Donam 2 Office Entrance Heungcheonsa", "name:ko": "\ub3c8\uc5542\ub3d9\uc0ac\ubb34\uc18c\uc785\uad6c\ud765\ucc9c\uc0ac", "name:ko-Latn": "Donam 2 Dongsamusoipguheungcheonsa", "public_transport": "platform", "ref": "08268", "route_ref": "1014;1212;162;1162", "shelter": "no", "tactile_paving": "yes"}}, {"type": "node", "id": 357857667, "lat": 37.60511, "lon": 127.01162, "tags": {"bench": "no", "bin": "no", "bus": "yes", "highway": "bus_stop", "name": "\uc815\ub989\uc6b0\uccb4\uad6d\uc55e", "name:en": "Jeongneung Post Office Front", "name:ko": "\uc815\ub989\uc6b0\uccb4\uad6d\uc55e", "name:ko-Latn": "Jeongneunguchegukap", "public_transport": "platform", "route_ref": "1014;1113;110;110;143;162", "shelter": "no", "tactile_paving": "yes"}}, {"type": "node", "id": 357857692, "lat": 37.5860368, "lon": 127.0190883, "tags": {"bench": "yes", "bin": "no", "bus": "yes", "highway": "bus_stop", "lit": "no", "name": "\ubcf4\ubb38\uc5ed3\ubc88\ucd9c\uad6c", "name:en": "Bomun Station", "name:ja": "\u666e\u9580\u99c5", "name:ko-Latn": "Bomunyeok", "public_transport": "platform", "ref": "08326", "route_ref": "1014;273;142", "shelter": "no", "tactile_paving": "yes"}}, {"type": "node", "id": 357857721, "lat": 37.60844, "lon": 127.00978, "tags": {"bench": "no", "bin": "no", "bus": "yes", "highway": "bus_stop", "lit": "no", "name": "\uc815\ub989\uc2dc\uc7a5\uc785\uad6c", "name:en": "Jeongneung Market Entrance", "name:ko": "\uc815\ub989\uc2dc\uc7a5\uc785\uad6c", "name:ko-Latn": "Jeongneungsijangipgu", "public_transport": "platform", "ref": "08167", "route_ref": "1014;1113;162;110;110;143", "shelter": "no", "tactile_paving": "yes"}}, {"type": "node", "id": 357857723, "lat": 37.5882361, "lon": 127.0173359, "tags": {"bus": "yes", "highway": "bus_stop", "name": "\uc131\ubd81\uad6c\uccad.\uc131\ubd81\uacbd\ucc30\uc11c", "name:en": "Seongbuk Office", "name:ko-Latn": "Seongbukgucheong", "public_transport": "platform", "route_ref": "1014;273;272;152;103;142;1111"}}, {"type": "node", "id": 357857732, "lat": 37.5938438, "lon": 127.016173, "tags": {"bus": "yes", "highway": "bus_stop", "name": "\uc131\uc2e0\uc5ec\ub300\uc785\uad6c\uc5ed5\ubc88\ucd9c\uad6c", "public_transport": "platform", "ref": "08270", "route_ref": "1014;1162;1212;162"}}, {"type": "node", "id": 357857739, "lat": 37.61846, "lon": 127.006174, "tags": {"bus": "yes", "highway": "bus_stop", "name": "\uc815\ub989\ucd08\uad50", "name:en": "Jeongneung Elementary School", "name:ko": "\uc815\ub989\ucd08\uad50", "name:ko-Latn": "Jeongneungchogyo", "public_transport": "platform", "route_ref": "1014;1114"}}, {"type": "node", "id": 357857743, "lat": 37.6161168, "lon": 127.0087826, "tags": {"bus": "yes", "highway": "bus_stop", "name": "\uc815\ub989\ub3d9\ud48d\ub9bc\uc544\ud30c\ud2b8.\uccad\uc18c\ub144\ubb38\ud654\uc758\uc9d1", "name:en": "Jeongneungdongpungnim Apt.", "name:ko-Latn": "Jeongneungdongpungnimapateu", "public_transport": "platform", "route_ref": "1014;1114;1166"}}, {"type": "node", "id": 357858425, "lat": 37.58888, "lon": 127.00762, "tags": {"bus": "yes", "highway": "bus_stop", "name": "\ud55c\uc131\ub300\uc785\uad6c", "name:en": "Hanseongdae Entrance", "name:ko": "\ud55c\uc131\ub300\uc785\uad6c", "name:ko-Latn": "Hanseongdaeipgu", "public_transport": "platform", "route_ref": "1111"}}, {"type": "node", "id": 357858483, "lat": 37.58602, "lon": 127.0219, "tags": {"bench": "no", "bin": "no", "bus": "yes", "highway": "bus_stop", "lit": "no", "name": "\uc548\uc554\ub3d9\uc0ac\ubb34\uc18c", "name:en": "Anam Office", "name:ko": "\uc548\uc554\ub3d9\uc0ac\ubb34\uc18c", "name:ko-Latn": "Anamdongsamuso", "public_transport": "platform", "ref": "08297", "route_ref": "1111;273", "shelter": "no", "tactile_paving": "no"}}, {"type": "node", "id": 357858544, "lat": 37.59437, "lon": 126.99303, "tags": {"bus": "yes", "highway": "bus_stop", "name": "\ub3d9\ubc29\ub300\ud559\uc6d0\ub300\ud559\uad50", "name:en": "Dongbang University", "name:ko": "\ub3d9\ubc29\ub300\ud559\uc6d0\ub300\ud559\uad50", "name:ko-Latn": "Dongbangdaehakwondaehakgyo", "public_transport": "platform", "route_ref": "1111;2112", "wheelchair": "yes"}}, {"type": "node", "id": 357858567, "lat": 37.6085761, "lon": 127.0046029, "tags": {"bus": "yes", "highway": "bus_stop", "name": "\uc815\ub9893\ub3d9\uc8fc\ubbfc\uc13c\ud130\uc55e", "public_transport": "platform", "route_ref": "1020;1114;1166"}}, {"type": "node", "id": 357858569, "lat": 37.6104465, "lon": 127.0051364, "tags": {"bench": "no", "bus": "yes", "highway": "bus_stop", "name": "\uc0bc\ub355\ub2e8\uc9c0\uc55e", "name:en": "Samdeokdanji Front", "name:ko": "\uc0bc\ub355\ub2e8\uc9c0\uc55e", "name:ko-Latn": "Samdeokdanjiap", "public_transport": "platform", "route_ref": "1020;1114;\uc131\ubd81 06", "shelter": "no"}}, {"type": "node", "id": 357858571, "lat": 37.6084955, "lon": 127.0002507, "tags": {"bus": "yes", "highway": "bus_stop", "name": "\uccad\ub355\ucd08\uad50", "name:en": "Cheongdeok Elementary School", "name:ko": "\uccad\ub355\ucd08\uad50", "name:ko-Latn": "Cheongdeokchogyo", "public_transport": "platform", "route_ref": "1020;1112;171;153;1213;110;7211;1166"}}, {"type": "node", "id": 357858928, "lat": 37.5897725, "lon": 127.0089804, "tags": {"bench": "yes", "bin": "yes", "bus": "yes", "highway": "bus_stop", "name": "\uc0bc\uc120\uad50.\ud55c\uc131\ub300\ud559\uad50(\uc911)", "name:en": "Samseongyohanseong University", "name:ko-Latn": "Samseongyohanseongdaehakgyo", "public_transport": "platform", "route_ref": "1018;149;143;171;109;1148;160;272;140;108;107;602;162;172;151;106;161;102;104;101;273;150", "shelter": "yes", "tactile_paving": "yes"}}, {"type": "node", "id": 357858962, "lat": 37.6186715, "lon": 127.0292828, "tags": {"bus": "yes", "highway": "bus_stop", "name": "\ub3c4\ubd09\uc138\ubb34\uc11c\uc131\ubd81\uc2dc\uc7a5", "name:en": "Dobong District Tax Office Seongbuk Market", "name:ko": "\ub3c4\ubd09\uc138\ubb34\uc11c\uc131\ubd81\uc2dc\uc7a5", "name:ko-Latn": "Dobongsemuseoseongbuksijang", "public_transport": "platform", "route_ref": "1018;161;160;153;100;101;102;106;107;108;120;140;130;141;142;151;150;1144;1148"}}, {"type": "node", "id": 357858967, "lat": 37.6060359, "lon": 127.027292, "tags": {"bench": "yes", "bus": "yes", "highway": "bus_stop", "name": "\uae38\uc74c2\ub3d9\uc8fc\ubbfc\uc13c\ud130", "public_transport": "platform", "ref": "08002", "route_ref": "1018;107;108;172;140;161;160;142;153;1128;149;150;1148;103;101;151;102;106", "shelter": "yes"}}, {"type": "node", "id": 357858972, "lat": 37.6408597, "lon": 127.0287493, "tags": {"bus": "yes", "highway": "bus_stop", "name": "\uc218\uc7203\ub3d9\uc6b0\uccb4\uad6d", "name:en": "Suyu 3 Dong Post Office", "name:ko": "\uc218\uc7203\ub3d9\uc6b0\uccb4\uad6d", "name:ko-Latn": "Suyu 3 Dongucheguk", "public_transport": "platform", "route_ref": "1018;100;161;160;142;1151;106;141;107;130;140;108;150;1148"}}, {"type": "node", "id": 357859093, "lat": 37.6363575, "lon": 127.0238465, "tags": {"bus": "yes", "highway": "bus_stop", "name": "\uc218\uc720\uc5ed(\uc911)", "name:en": "Suyuyeok", "name:ko": "\uc218\uc720\uc5ed(\uc911)", "name:ko-Latn": "Suyuyeok", "public_transport": "platform", "route_ref": "1018;1148;1151;101;140;100;142;120;150;141;2001;130;108;107;106;160;153;161"}}, {"type": "node", "id": 357859244, "lat": 37.6134851, "lon": 127.0487, "tags": {"bus": "yes", "highway": "bus_stop", "name": "\uccad\uc18c\ub144\ubb38\ud654\ub204\ub9bc\uc13c\ud130", "name:en": "Gungmin Bank Jangwidongjijeom", "name:ko-Latn": "Gungmineunhaengjangwidongjijeom", "public_transport": "platform", "route_ref": "1017;103;172;1137"}}, {"type": "node", "id": 357859250, "lat": 37.6138247, "lon": 127.0455365, "tags": {"bus": "yes", "highway": "bus_stop", "name": "\uc7a5\uc7041\ub3d9\uce58\uc548\uc13c\ud130", "name:en": "Jangwi 1 Dong Police Box", "name:ko-Latn": "Jangwi 1 Dongpachulso", "public_transport": "platform", "route_ref": "1017;172;1137;103"}}, {"type": "node", "id": 357859263, "lat": 37.6105919, "lon": 127.0354686, "tags": {"bus": "yes", "highway": "bus_stop", "name": "\uc6d4\uace11\ub3d9\uc8fc\ubbfc\uc13c\ud130", "name:en": "Wolgok 1 Office", "name:ko": "\uc6d4\uace11\ub3d9\uc8fc\ubbfc\uc13c\ud130", "name:ko-Latn": "Wolgok 1 Dongsamuso", "public_transport": "platform", "route_ref": "1017;120"}}, {"type": "node", "id": 357859273, "lat": 37.6142812, "lon": 127.0404814, "tags": {"bus": "yes", "highway": "bus_stop", "name": "\uc7a5\uc704\ub3d9\uace0\uac1c", "name:en": "Jangwidong Hill", "name:ko": "\uc7a5\uc704\ub3d9\uace0\uac1c", "name:ko-Latn": "Jangwidonggogae", "public_transport": "platform", "route_ref": "1017;172;1137;103"}}, {"type": "node", "id": 357859284, "lat": 37.62856, "lon": 127.05709, "tags": {"bus": "yes", "highway": "bus_stop", "name": "\uc6d4\uacc4119\uc548\uc804\uc13c\ud130", "public_transport": "platform", "route_ref": "1017;163;1133"}}, {"type": "node", "id": 357859286, "lat": 37.6283708, "lon": 127.0587472, "tags": {"bus": "yes", "highway": "bus_stop", "name": "\uc2e0\ub3c4\ube0c\ub798\ub274.\ud55c\uc804\ub178\uc6d0\ubcc0\uc804\uc18c", "public_transport": "platform", "route_ref": "1017;163;1133;1137"}}, {"type": "node", "id": 357859293, "lat": 37.6189158, "lon": 127.0563995, "tags": {"bus": "yes", "highway": "bus_stop", "name": "\uad11\uc6b4\uc911.\uad11\uc6b4\uc778\uacf5\uc9c0\ub2a5\uace0\ub4f1\ud559\uad50", "name:en": "Gwangun Middle School", "name:ko-Latn": "Gwangunjunghakgyo", "public_transport": "platform", "route_ref": "1017;1137;1146;261"}}, {"type": "node", "id": 357861043, "lat": 37.64424, "lon": 127.07421, "tags": {"bus": "yes", "highway": "bus_stop", "name": "\ub3d9\ucc9c\ud559\uad50", "name:en": "Dongcheonhakgyo", "name:ko": "\ub3d9\ucc9c\ud559\uad50", "name:ko-Latn": "Dongcheonhakgyo", "public_transport": "platform", "route_ref": "1132;1221"}}, {"type": "node", "id": 357861055, "lat": 37.64744, "lon": 127.07395, "tags": {"bus": "yes", "highway": "bus_stop", "name": "\ub86f\ub370\uc6b0\uc131\uc544\ud30c\ud2b8", "name:en": "Lotte Useong Apt.", "name:ko": "\ub86f\ub370\uc6b0\uc131\uc544\ud30c\ud2b8", "name:ko-Latn": "Rotdeuseongapateu", "public_transport": "platform", "route_ref": "1132;1143;1224;1131"}}, {"type": "node", "id": 357861057, "lat": 37.623039, "lon": 127.0865924, "tags": {"bus": "yes", "highway": "bus_stop", "name": "\uccad\uc1948\ub2e8\uc9c0\uc544\ud30c\ud2b8", "name:en": "Cheongsol Apt.", "name:ko-Latn": "Cheongsorapateu", "public_transport": "platform", "route_ref": "1132;1223"}}, {"type": "node", "id": 357861064, "lat": 37.61845, "lon": 127.0776, "tags": {"bus": "yes", "highway": "bus_stop", "name": "\uc11c\uc6b8\uc0dd\ud65c\uc0ac\ubc15\ubb3c\uad00.\ub18d\ud611\uc55e", "public_transport": "platform", "route_ref": "1132;1156;1155;1141"}}, {"type": "node", "id": 357861069, "lat": 37.63785, "lon": 127.07734, "tags": {"bus": "yes", "highway": "bus_stop", "name": "\ub300\uc9c4\uace0\ub4f1\ud559\uad50", "name:en": "Daejin High School", "name:ko": "\ub300\uc9c4\uace0\ub4f1\ud559\uad50", "name:ko-Latn": "Daejingodeunghakgyo", "public_transport": "platform", "route_ref": "1132"}}, {"type": "node", "id": 357861070, "lat": 37.6277272, "lon": 127.0850234, "tags": {"bus": "yes", "highway": "bus_stop", "name": "\uacf5\ub989\ud574\ub9c1\ud134\ud50c\ub808\uc774\uc2a4", "public_transport": "platform", "ref": "11134", "route_ref": "1132;1223;1136"}}, {"type": "node", "id": 357861073, "lat": 37.62514, "lon": 127.08591, "tags": {"bus": "yes", "highway": "bus_stop", "name": "\ud0dc\ub989\ud604\ub300\uc544\ud30c\ud2b8", "name:en": "Taereunghyeondae Apt.", "name:ko": "\ud0dc\ub989\ud604\ub300\uc544\ud30c\ud2b8", "name:ko-Latn": "Taereunghyeondaeapateu", "public_transport": "platform", "route_ref": "1132;1223"}}, {"type": "node", "id": 357861075, "lat": 37.64481, "lon": 127.07495, "tags": {"bus": "yes", "highway": "bus_stop", "name": "\uc11c\ub77c\ubc8c\uace0\ub4f1\ud559\uad50", "name:en": "Seorabeol High School", "name:ko": "\uc11c\ub77c\ubc8c\uace0\ub4f1\ud559\uad50", "name:ko-Latn": "Seorabeolgodeunghakgyo", "public_transport": "platform", "route_ref": "1132;1221"}}, {"type": "node", "id": 357861082, "lat": 37.64664, "lon": 127.07429, "tags": {"bus": "yes", "highway": "bus_stop", "name": "\ubd88\uc554\uc911\ud559\uad50", "name:en": "Buram Middle School", "name:ko": "\ubd88\uc554\uc911\ud559\uad50", "name:ko-Latn": "Buramjunghakgyo", "public_transport": "platform", "route_ref": "1132;1221"}}, {"type": "node", "id": 357861084, "lat": 37.63824, "lon": 127.077, "tags": {"bus": "yes", "highway": "bus_stop", "name": "\uc0bc\uc775\uc120\uacbd\uc544\ud30c\ud2b8", "name:en": "Samikseongyeong Apt.", "name:ko": "\uc0bc\uc775\uc120\uacbd\uc544\ud30c\ud2b8", "name:ko-Latn": "Samikseongyeongapateu", "public_transport": "platform", "route_ref": "1132"}}, {"type": "node", "id": 357861093, "lat": 37.65477, "lon": 127.06216, "tags": {"bus": "yes", "highway": "bus_stop", "name": "\ub86f\ub370\ubc31\ud654\uc810\ub178\uc6d0\uc810", "name:en": "Lotte Dept. Store Nowonjeom", "name:ja": "\u30ed\u30c3\u30c6\u767e\u8ca8\u5e97\u76e7\u539f\u5e97", "name:ko": "\ub86f\ub370\ubc31\ud654\uc810\ub178\uc6d0\uc810", "name:ko-Latn": "Rotdebaekhwajeomnowonjeom", "public_transport": "platform", "route_ref": "1132"}}, {"type": "node", "id": 357861095, "lat": 37.65516, "lon": 127.06382, "tags": {"bus": "yes", "highway": "bus_stop", "name": "\uc640\uc6b0\ud328\uc158\ud074\ub7fd", "name:en": "Wau Fashion Club", "name:ko": "\uc640\uc6b0\ud328\uc158\ud074\ub7fd", "name:ko-Latn": "Waupaesyeonkeulleop", "public_transport": "platform", "route_ref": "1132"}}, {"type": "node", "id": 357861101, "lat": 37.64974, "lon": 127.06918, "tags": {"bus": "yes", "highway": "bus_stop", "name": "\uc0c1\uba85\uace0\ub4f1\ud559\uad50", "name:en": "Sangmyeong High School", "name:ko": "\uc0c1\uba85\uace0\ub4f1\ud559\uad50", "name:ko-Latn": "Sangmyeonggodeunghakgyo", "public_transport": "platform", "route_ref": "1132;1154;1140;1139;1143"}}, {"type": "node", "id": 357861106, "lat": 37.6546528, "lon": 127.0674346, "tags": {"bus": "yes", "highway": "bus_stop", "name": "\uc911\uc559\ud558\uc774\uce202\ucc28\uc544\ud30c\ud2b8", "name:en": "Central Haicheu 2 Cha Apt.", "name:ko": "\uc911\uc559\ud558\uc774\uce202\ucc28\uc544\ud30c\ud2b8", "name:ko-Latn": "Junganghaicheu 2 Chaapateu", "public_transport": "platform", "route_ref": "1132;1154"}}, {"type": "node", "id": 357861108, "lat": 37.65242, "lon": 127.06813, "tags": {"bus": "yes", "highway": "bus_stop", "name": "\uc0c1\uacc4\uc911\ud559\uad50\uc815\ubb38", "name:en": "Sanggye Middle School Main Gate", "name:ko": "\uc0c1\uacc4\uc911\ud559\uad50\uc815\ubb38", "name:ko-Latn": "Sanggyejunghakgyojeongmun", "public_transport": "platform", "route_ref": "1132;1154"}}, {"type": "node", "id": 357861133, "lat": 37.62144, "lon": 127.06912, "tags": {"bus": "yes", "highway": "bus_stop", "name": "\uc6d4\uacc4\ubbf8\uc131\uc544\ud30c\ud2b8", "name:en": "Wolgyemiseong Apt.", "name:ko": "\uc6d4\uacc4\ubbf8\uc131\uc544\ud30c\ud2b8", "name:ko-Latn": "Wolgyemiseongapateu", "public_transport": "platform", "route_ref": "1132;1131;1136;1146;1215;1222"}}, {"type": "node", "id": 357861135, "lat": 37.6235352, "lon": 127.086773, "tags": {"bus": "yes", "highway": "bus_stop", "name": "\ud654\ub791\ud0c0\uc6b4\uc544\ud30c\ud2b8", "name:en": "Hwarang Town Apt.", "name:ko": "\ud654\ub791\ud0c0\uc6b4\uc544\ud30c\ud2b8", "name:ko-Latn": "Hwarangtaunapateu", "public_transport": "platform", "route_ref": "1132;1223"}}, {"type": "node", "id": 357861144, "lat": 37.617756, "lon": 127.0765536, "tags": {"bus": "yes", "highway": "bus_stop", "name": "\ud0dc\ub989\uc785\uad6c\uc5ed7\ubc88\ucd9c\uad6c.\uc11c\uc6b8\uc0dd\ud65c\uc0ac\ubc15\ubb3c\uad00", "public_transport": "platform", "ref": "11117", "route_ref": "1132;1156;1155;1141"}}, {"type": "node", "id": 357861159, "lat": 37.6283521, "lon": 127.0640634, "tags": {"bus": "yes", "highway": "bus_stop", "name": "\ub179\ucc9c\ucd08\ub4f1\ud559\uad50.\uc6d4\uacc4\uc774\ub9c8\ud2b8", "name:en": "Nokcheon Elementary School Wolgye E-Mart", "name:ko-Latn": "Nokcheonchodeunghakgyowolgyeimateu", "public_transport": "platform", "route_ref": "1131"}}, {"type": "node", "id": 357861162, "lat": 37.63389, "lon": 127.0592032, "tags": {"bus": "yes", "highway": "bus_stop", "name": "\uc6d4\uacc4\uc5ed1\ubc88\ucd9c\uad6c", "public_transport": "platform", "route_ref": "1131"}}, {"type": "node", "id": 357861203, "lat": 37.6149035, "lon": 127.0650818, "tags": {"bus": "yes", "highway": "bus_stop", "name": "\uc11d\uacc4\uc5ed1\ubc88\ucd9c\uad6c.A", "public_transport": "platform", "ref": "11283", "route_ref": "1133;1146;115;1132;1141;163;1156;1222;1215;1136;2114;2113;1130"}}, {"type": "node", "id": 357861205, "lat": 37.61686, "lon": 127.06422, "tags": {"bus": "yes", "highway": "bus_stop", "name": "\ubb3c\ub958\uc13c\ud130", "name:en": "Mullyu Center", "name:ja": "\u7269\u6d41\u30bb\u30f3\u30bf\u30fc", "name:ko": "\ubb3c\ub958\uc13c\ud130", "name:ko-Latn": "Mullyusenteo", "public_transport": "platform", "route_ref": "1133;163;261;1130"}}, {"type": "node", "id": 357861210, "lat": 37.62228, "lon": 127.06199, "tags": {"bench": "yes", "bin": "no", "bus": "yes", "highway": "bus_stop", "lit": "yes", "name": "\uad11\uc6b4\ub300\uc5ed", "name:en": "Kwangwoon Univ. Station", "name:ko": "\uad11\uc6b4\ub300\uc5ed", "public_transport": "platform", "route_ref": "1133;1130;261;163", "shelter": "yes", "tactile_paving": "yes"}}, {"type": "node", "id": 357861216, "lat": 37.6284992, "lon": 127.0554593, "tags": {"bus": "yes", "highway": "bus_stop", "name": "\uc778\ub355\ub300\ud559\uad50.\uc6d4\uacc4\ub3c4\uc11c\uad00", "public_transport": "platform", "route_ref": "1133;1160;1130"}}, {"type": "node", "id": 357861224, "lat": 37.62742, "lon": 127.05255, "tags": {"bus": "yes", "highway": "bus_stop", "name": "\uc6d4\uacc4\uc885\ud569\uc0ac\ud68c\ubcf5\uc9c0\uad00", "name:en": "Wolgyejonghap Social Welfare Hall", "name:ko": "\uc6d4\uacc4\uc885\ud569\uc0ac\ud68c\ubcf5\uc9c0\uad00", "name:ko-Latn": "Wolgyejonghapsahoebokjigwan", "public_transport": "platform", "route_ref": "1133;1130"}}, {"type": "node", "id": 357861230, "lat": 37.62681, "lon": 127.05152, "tags": {"bus": "yes", "highway": "bus_stop", "name": "\uc6d4\uacc4\uacf5\ub2e8", "name:en": "Wolgyegongdan", "name:ko": "\uc6d4\uacc4\uacf5\ub2e8", "name:ko-Latn": "Wolgyegongdan", "public_transport": "platform", "route_ref": "1133;1130;1160;1157"}}, {"type": "node", "id": 357861256, "lat": 37.617759, "lon": 127.0727184, "tags": {"bus": "yes", "highway": "bus_stop", "name": "\uacf5\ub9891\ub3d9\uc0bc\uc775\uc544\ud30c\ud2b8", "name:en": "Gongneung 1 Dongsamik Apt.", "name:ko": "\uacf5\ub9891\ub3d9\uc0bc\uc775\uc544\ud30c\ud2b8", "name:ko-Latn": "Gongneung 1 Dongsamikapateu", "public_transport": "platform", "route_ref": "1135"}}, {"type": "node", "id": 357861298, "lat": 37.63241, "lon": 127.04391, "tags": {"bus": "yes", "highway": "bus_stop", "name": "\ucd08\uc548\uc544\ud30c\ud2b8", "name:en": "Choan Apt.", "name:ko": "\ucd08\uc548\uc544\ud30c\ud2b8", "name:ko-Latn": "Choanapateu", "public_transport": "platform", "route_ref": "1133;1157"}}, {"type": "node", "id": 357861372, "lat": 37.6281542, "lon": 127.059127, "tags": {"bus": "yes", "highway": "bus_stop", "name": "\uc2e0\ub3c4\ube0c\ub798\ub274.\ud55c\uc804\ub178\uc6d0\ubcc0\uc804\uc18c", "public_transport": "platform", "route_ref": "1133;1017;163;1137;1130;1140"}}, {"type": "node", "id": 357861480, "lat": 37.62159, "lon": 127.0694, "tags": {"bus": "yes", "highway": "bus_stop", "name": "\uc6d4\uacc4\ubbf8\uc131\uc544\ud30c\ud2b8", "name:en": "Wolgyemiseong Apt.", "name:ko": "\uc6d4\uacc4\ubbf8\uc131\uc544\ud30c\ud2b8", "name:ko-Latn": "Wolgyemiseongapateu", "public_transport": "platform", "route_ref": "1132;1136;1131;1146;1215;1222"}}, {"type": "node", "id": 357861500, "lat": 37.62335, "lon": 127.06858, "tags": {"bus": "yes", "highway": "bus_stop", "name": "\uc6d4\uacc4\ubbf8\ub96d\uc544\ud30c\ud2b8", "name:en": "Wolgyemiryung Apt.", "name:ko": "\uc6d4\uacc4\ubbf8\ub96d\uc544\ud30c\ud2b8", "name:ko-Latn": "Wolgyemiryungapateu", "public_transport": "platform", "route_ref": "1132;1136;1146;1222;1215;1131"}}, {"type": "node", "id": 357861527, "lat": 37.627443, "lon": 127.050212, "tags": {"bus": "yes", "highway": "bus_stop", "name": "1132", "name:en": "1132", "name:ko-Latn": "1132", "public_transport": "platform"}}, {"type": "node", "id": 357861529, "lat": 37.6666438, "lon": 127.0574666, "tags": {"bus": "yes", "highway": "bus_stop", "name": "\uc0c1\uacc4\uc8fc\uacf512\ub2e8\uc9c0", "name:en": "Sanggyejugong 12 Complex", "name:ko": "\uc0c1\uacc4\uc8fc\uacf512\ub2e8\uc9c0", "name:ko-Latn": "Sanggyejugong 12 Danji", "public_transport": "platform", "route_ref": "1129;146;1154;1152;1153;1139;1143"}}, {"type": "node", "id": 357861535, "lat": 37.6708945, "lon": 127.05253, "tags": {"bus": "yes", "highway": "bus_stop", "name": "\uc0c1\uacbd\ucd08\ub4f1\ud559\uad50.\uc0c1\uacc4\ud604\ub3003\ucc28\uc544\ud30c\ud2b8", "name:en": "Sanggyehyeondae 3 Cha Apt.", "name:ko-Latn": "Sanggyehyeondae 3 Chaapateu", "public_transport": "platform", "route_ref": "1129"}}, {"type": "node", "id": 357861545, "lat": 37.660701, "lon": 127.062777, "tags": {"bus": "yes", "highway": "bus_stop", "name": "\uc0c1\uacc410\ub3d9\uc6b0\uccb4\uad6d", "name:en": "Sanggye 10 Dong Post Office;145;104", "name:ko": "\uc0c1\uacc410\ub3d9\uc6b0\uccb4\uad6d", "name:ko-Latn": "Sanggye 10 Dongucheguk;145;104", "public_transport": "platform", "route_ref": "1129"}}, {"type": "node", "id": 357861548, "lat": 37.6593226, "lon": 127.0645874, "tags": {"bus": "yes", "highway": "bus_stop", "name": "\uc628\uace1\uc911\ud559\uad50\ub178\uc6d0\uc911\uc559\ub3c4\uc11c\uad00", "public_transport": "platform", "route_ref": "1129"}},